ID_CHIESA;FK_TIPO_CH;TIPO_CHIES;DENOMINAZ;INDIRIZZO;CITTA;CAP;CIRCOSCRIZ;TELEFONO;FAX;EMAIL;URL;ZONA_VICAR;UNITA_PAST;PARROCCO;CONFESSION;ORARIO;COD_DIOCES;ABIT_PARRO;NOM_U_PAST;geometry;LATITUDE;LONGITUDE;QUARTIERE;DQUARTIERE;DCIRCOSCRIZ
1;1;PARROCCHIALE;Ascensione del Signore;VIA PIETRO BONFANTE 3;TORINO;10137;2;011 3115422;;;http://www4.diocesi.torino.it/schede/parr002.htm;8.0;19.0;MONTICONE don Domenico;Chiesa Cattolica;;2.0;12280.0;Unita' Pastorale N.19 - Mirafiori Nord;POINT (7.625742370285245 45.04118807418743);45.04118807418743;7.625742370285245;12;Mirafiori Nord;Santa Rita - Mirafiori
13;1;PARROCCHIALE;Gesu' Redentore;PIAZZA GIOVANNI XXIII 26;TORINO;10137;2;011 3095026;011 3090728;parr.redentore@diocesi.torino.it;http://www.diocesi.torino.it/parr013;8.0;19.0;BERNARDI don Giovanni;Chiesa Cattolica;;13.0;14020.0;Unita' Pastorale N.19 - Mirafiori Nord;POINT (7.634994878514318 45.03487831778815);45.03487831778815;7.634994878514318;12;Mirafiori Nord;Santa Rita - Mirafiori
75;1;PARROCCHIALE;S. Ignazio di Loyola;VIA MONFALCONE 152;TORINO;10136;2;011 3290305;011 3585625;parr.s.ignazio@diocesi.torino.it;http://www.diocesi.torino.it/parr078;8.0;18.0;PASTRANO don Marco;Chiesa Cattolica;;78.0;6000.0;Unita' Pastorale N.18 - S.Ignazio;POINT (7.632489394872928 45.05339396800566);45.05339396800566;7.632489394872928;12;Mirafiori Nord;Santa Rita - Mirafiori
108;1;PARROCCHIALE;SS. Nome di Maria;VIA GUIDO RENI 96 int. 140;TORINO;10136;2;011 3090258;011 3090258;;http://www.parrocchie.it/torino/nomemaria/home.htm;8.0;18.0;RUGOLINO don Benito;Chiesa Cattolica;;107.0;10000.0;Unita' Pastorale N.18 - S.Ignazio;POINT (7.623705530036448 45.04761202940193);45.047612029401925;7.623705530036448;12;Mirafiori Nord;Santa Rita - Mirafiori
18;1;PARROCCHIALE;La Pentecoste;VIA FILADELFIA 237 int. 11;TORINO;10137;2;011 3114868;011 3114868;parr.pentecoste@diocesi.torino.it;http://www.diocesi.torino.it/parr018;8.0;19.0;MONTICONE don Domenico;Chiesa Cattolica;;18.0;9920.0;Unita' Pastorale N.19 - Mirafiori Nord;POINT (7.633044010740255 45.04529534516001);45.045295345160014;7.633044010740255;12;Mirafiori Nord;Santa Rita - Mirafiori
66;1;PARROCCHIALE;S. Giovanni Bosco;VIA PAOLO SARPI 117;TORINO;10135;2;011 612136;011 611432;"parrocchia@agnelli.it; oratorio@oratorioagnelli.it; cinema@agnelli.it";http://www.oratorioagnelli.it;8.0;19.0;RIGO don Giovanni S.D.B.;Chiesa Cattolica;;69.0;5480.0;Unita' Pastorale N.19 - Mirafiori Nord;POINT (7.643016756618087 45.03160500507617);45.031605005076166;7.643016756618087;12;Mirafiori Nord;Santa Rita - Mirafiori
4;1;PARROCCHIALE;Beata Vergine delle Grazie;VIA MARCO POLO 8;TORINO;10129;1;011 599233;011 593006;parr.crocetta@diocesi.torino.it;http://www.diocesi.torino.it/parr005;2.0;3.0;FIANDINO Mons. Guido;Chiesa Cattolica;;5.0;16000.0;Unita' Pastorale N.03 - Crocetta;POINT (7.66432351715659 45.05811889796211);45.05811889796211;7.66432351715659;3;Crocetta;Centro - Crocetta
93;1;PARROCCHIALE;S. Secondo Martire;VIA S. SECONDO 8;TORINO;10128;1;011 543191;011 5661813;sansecondo@davide.it;http://www.parrocchie.it/torino/sansecondo/Index.htm;2.0;3.0;FORADINI don Mario;Chiesa Cattolica;;96.0;7000.0;Unita' Pastorale N.03 - Crocetta;POINT (7.6754638299889 45.0623531513689);45.062353151368896;7.6754638299889;3;Crocetta;Centro - Crocetta
94;1;PARROCCHIALE;S. Teresa di Gesu' Bambino;VIA GIOVANNI DA VERAZZANO 48;TORINO;10129;1;011 596698;011 5805961;santateresina@yahoo.it;http://www4.diocesi.torino.it/schede/parr097.htm;2.0;3.0;MANA don Mario Sebastiano;Chiesa Cattolica;;97.0;14500.0;Unita' Pastorale N.03 - Crocetta;POINT (7.656168982099111 45.05678453992895);45.05678453992895;7.656168982099111;3;Crocetta;Centro - Crocetta
141;2;NON PARROCCHIALE;S. Anna;VIA ANDREA MASSENA 32;TORINO;10128;1;;;;;;;;Chiesa Cattolica;Fest. 8.30(esc. ago.);;;;POINT (7.672641723194732 45.06079378978681);45.06079378978681;7.672641723194732;3;Crocetta;Centro - Crocetta
30;1;PARROCCHIALE;Madonna di Pompei;VIA S. SECONDO 90;TORINO;10128;1;011 5681479;011 2274302;parr.madonna.pompei@diocesi.torino.it;http://www.madonnadipompei.org;2.0;3.0;PACIFICO don Luca;Chiesa Cattolica;;30.0;5500.0;Unita' Pastorale N.03 - Crocetta;POINT (7.668906604890909 45.05388594232154);45.05388594232154;7.668906604890909;3;Crocetta;Centro - Crocetta
125;2;NON PARROCCHIALE;Maria SS.Ausiliatrice;VIA GIUSEPPE PIAZZI 25;TORINO;10129;1;011/5819723;;;;;;;Chiesa Cattolica;"Fest.8-9.15 (escl.18/6-9/9)-10.30-11.30-18.30; Prefest.18.30";;;;POINT (7.66046072595084 45.05485310979899);45.05485310979899;7.66046072595084;3;Crocetta;Centro - Crocetta
170;2;NON PARROCCHIALE;SS. Annunziata e SS. Maurizio e Lazzaro (Osp.Mauriziano);LARGO RE UMBERTO 109;TORINO;10128;1;011/50801;;;;;;;Chiesa Cattolica;"Fest. 11.30-17; Prefest, 17";;;;POINT (7.664881777901139 45.05253097113879);45.052530971138786;7.664881777901139;3;Crocetta;Centro - Crocetta
6;1;PARROCCHIALE;Beato Pier Giorgio Frassati;VIA PIETRO COSSA 280 int. 2;TORINO;10151;5;011 4551430;;parr.frassati@diocesi.torino.it;http:/www.beatofrassati.it/index.htm;5.0;11.0;MANENTE don Adriano S.D.B.;Chiesa Cattolica;;111.0;4060.0;Unita' Pastorale N.11 - Lucento;POINT (7.634106598033033 45.0948219115737);45.094821911573696;7.634106598033033;15;Le Valette;Borgo Vittoria - Madonna di Campagna - Lucento - Vallette
54;1;PARROCCHIALE;S. Caterina da Siena;VIA ANDREA SANSOVINO 85;TORINO;10151;5;011 731750;011 731750;;http://www4.diocesi.torino.it/schede/parr056.htm;5.0;11.0;CASETTA don Renato Maria;Chiesa Cattolica;;56.0;7200.0;Unita' Pastorale N.11 - Lucento;POINT (7.641345067046917 45.10231148949457);45.10231148949457;7.641345067046917;15;Le Valette;Borgo Vittoria - Madonna di Campagna - Lucento - Vallette
106;1;PARROCCHIALE;Ss. Bernardo e Brigida;VIA FOGLIZZO 3;TORINO;10149;5;011 731615;011 731615;parr.lucento@diocesi.torino.it;http://www4.diocesi.torino.it/schede/parr102.htm;5.0;11.0;LOVERA don Mario;Chiesa Cattolica;;102.0;10430.0;Unita' Pastorale N.11 - Lucento;POINT (7.649057475999843 45.09538048741283);45.09538048741283;7.649057475999843;15;Le Valette;Borgo Vittoria - Madonna di Campagna - Lucento - Vallette
47;1;PARROCCHIALE;S. Ambrogio Vescovo;CORSO L. QUINZIO CINCINNATO 225;TORINO;10151;5;011 7390045;;parr.s.ambrogio@diocesi.torino.it;http://www4.diocesi.torino.it/schede/parr049.htm;5.0;11.0;CANAVESIO don Mario;Chiesa Cattolica;;49.0;6110.0;Unita' Pastorale N.11 - Lucento;POINT (7.650112469069598 45.10501564543141);45.105015645431415;7.650112469069598;15;Le Valette;Borgo Vittoria - Madonna di Campagna - Lucento - Vallette
100;1;PARROCCHIALE;Santa Famiglia di Nazareth;VIALE DEI MUGHETTI 22/A;TORINO;10151;5;011 731185;011 7391521;parrocchia.s.f.n@libero.it;http://www4.diocesi.torino.it/schede/parr061.htm;5.0;11.0;BOZZI padre Ugo F.D.P.;Chiesa Cattolica;;61.0;8060.0;Unita' Pastorale N.11 - Lucento;POINT (7.628681804367168 45.10321218261702);45.10321218261702;7.628681804367168;15;Le Valette;Borgo Vittoria - Madonna di Campagna - Lucento - Vallette
7;1;PARROCCHIALE;Gesu' Adolescente;VIA EMANUELE LUSERNA DI RORA' 16;TORINO;10139;3;011 4336786; 0114470016;;http://www4.diocesi.torino.it/;3.0;5.0;ARCOSTANZO don Elio S.D.B.;Chiesa Cattolica;;7.0;15100.0;Unita' Pastorale N.05 - S.Paolo;POINT (7.646658783677817 45.06752431525112);45.06752431525112;7.646658783677817;5;Cenisia;San Paolo - Cenisia - Pozzo Strada - Cit Turin - Borgata Lesna
11;1;PARROCCHIALE;Gesu' Nazareno;VIA PIETRO PALMIERI 39;TORINO;10138;3;011 4474262;011 4473655;parr.gesunazar@fastwebnet.it - segreteria@nazareno.it;http://www.gesunazareno.it;4.0;8.0;VANZAGHI padre Ottorino D.C.;Chiesa Cattolica;;11.0;9500.0;Unita' Pastorale N.08 - S.Donato;POINT (7.661450579037948 45.07444817566732);45.07444817566732;7.661450579037948;5;Cenisia;San Paolo - Cenisia - Pozzo Strada - Cit Turin - Borgata Lesna
113;2;NON PARROCCHIALE;Missioni della Consolata - Beato Giuseppe Allamano;CORSO FRANCESCO FERRUCCI 18;TORINO;10138;3;011/4400400;;;;;;;Chiesa Cattolica;"Fest.10.30 - 17; Prefest.17";;;;POINT (7.655649677405524 45.07339568969966);45.07339568969966;7.655649677405524;5;Cenisia;San Paolo - Cenisia - Pozzo Strada - Cit Turin - Borgata Lesna
127;2;NON PARROCCHIALE;Maria Consolatrice;CORSO INGHILTERRA 33;TORINO;10138;3;011/4345417;;;;;;;Chiesa Cattolica;Fest.9;;;;POINT (7.666042382081317 45.07369870749741);45.07369870749741;7.666042382081317;5;Cenisia;San Paolo - Cenisia - Pozzo Strada - Cit Turin - Borgata Lesna
35;1;PARROCCHIALE;Maria Regina delle Missioni;VIA COAZZE 21;TORINO;10138;3;011 4331568;;;http://www4.diocesi.torino.it/schede/parr035.htm;4.0;9.0;MORETTI padre Pietro Luigi I.M.C.;Chiesa Cattolica;;35.0;5050.0;Unita' Pastorale N.09 - S.Alfonso;POINT (7.653190979760922 45.07441965820632);45.074419658206324;7.653190979760922;5;Cenisia;San Paolo - Cenisia - Pozzo Strada - Cit Turin - Borgata Lesna
87;1;PARROCCHIALE;S. Pellegrino Laziosi;CORSO RACCONIGI 28;TORINO;10139;3;011 3852771;011 338093;;http://www4.diocesi.torino.it/schede/parr090.htm;3.0;5.0;CASTRICINI padre Bruno M. O.S.M.;Chiesa Cattolica;;90.0;12000.0;Unita' Pastorale N.05 - S.Paolo;POINT (7.646853553725703 45.0717675080819);45.0717675080819;7.646853553725703;5;Cenisia;San Paolo - Cenisia - Pozzo Strada - Cit Turin - Borgata Lesna
137;2;NON PARROCCHIALE;N.S. di Lourdes;CORSO FRANCIA 29;TORINO;10138;3;011/4472368;;;;;;;Chiesa Cattolica;"Fest.8-10.30-12(escl.lug-ago)-18; Prefest.18";;;;POINT (7.660558203364577 45.07600884610384);45.07600884610384;7.660558203364577;5;Cenisia;San Paolo - Cenisia - Pozzo Strada - Cit Turin - Borgata Lesna
9;1;PARROCCHIALE;Gesu' Cristo Signore;VIA ANTONIO E VITTORIO SCIALOJA 8 ter;TORINO;10148;5;011 2201784;;;http://www4.diocesi.torino.it/schede/parr009.htm;5.0;13.0;DALCOLMO don Silvino;Chiesa Cattolica;;9.0;2200.0;Unita' Pastorale N.13 - Madonna di Campagna;POINT (7.689567593549261 45.10691136694234);45.10691136694234;7.689567593549261;17;Borgata Vittoria;Borgo Vittoria - Madonna di Campagna - Lucento - Vallette
41;1;PARROCCHIALE;Nostra Signora della Salute;VIA VIBO' 24;TORINO;10147;5;011 210523;011 2218151;parr.salute@diocesi.torino.it;http://www4.diocesi.torino.it/schede/parr041.htm;5.0;13.0;CORNALE padre Elvio Agostino C.S.I.;Chiesa Cattolica;;41.0;17100.0;Unita' Pastorale N.13 - Madonna di Campagna;POINT (7.67796430263443 45.09465279350869);45.09465279350869;7.67796430263443;17;Borgata Vittoria;Borgo Vittoria - Madonna di Campagna - Lucento - Vallette
96;1;PARROCCHIALE;S. Vincenzo de' Paoli;VIA SOSPELLO 124;TORINO;10147;5;011 296720;011 2216391;parr.s.vincenzo@diocesi.torino.it;http://www.diocesi.torino.it/parr099;5.0;13.0;CENA don Andrea;Chiesa Cattolica;;99.0;6500.0;Unita' Pastorale N.13 - Madonna di Campagna;POINT (7.676170446231851 45.10277465971372);45.10277465971372;7.676170446231851;17;Borgata Vittoria;Borgo Vittoria - Madonna di Campagna - Lucento - Vallette
71;1;PARROCCHIALE;S. Giuseppe Cafasso;CORSO GROSSETO 72/I;TORINO;10148;5;011 2201022;011 2201022;parr.s.cafasso@diocesi.torino.it;http://www4.diocesi.torino.it/schede/parr074.htm;5.0;13.0;ZUCCHI don Angelo;Chiesa Cattolica;;74.0;12000.0;Unita' Pastorale N.13 - Madonna di Campagna;POINT (7.681893181678189 45.10456006743939);45.10456006743939;7.6818931816781895;17;Borgata Vittoria;Borgo Vittoria - Madonna di Campagna - Lucento - Vallette
16;1;PARROCCHIALE;Immacolata Concezione e S. Donato;VIA S. DONATO 21;TORINO;10144;4;011 480261;;parr.san.donato@diocesi.torino.it ;http://www.immacolatasandonato.it/;4.0;8.0;CASETTA don Enzo, Vincenzo P.;Chiesa Cattolica;;16.0;15500.0;Unita' Pastorale N.08 - S.Donato;POINT (7.666537575949782 45.07923071602413);45.07923071602413;7.666537575949782;6;San Donato;San Donato - Campidoglio - Parella
109;1;PARROCCHIALE;Stimmate di S. Francesco d'Assisi;VIA GRAZIADIO ASCOLI 32;TORINO;10144;4;011 485825;011 485368;;http://www4.diocesi.torino.it/schede/parr108.htm;7.0;8.0;SIBONA don Giuseppe;Chiesa Cattolica;;108.0;10500.0;Unita' Pastorale N.08 - S.Donato;POINT (7.667817127449625 45.08558200147469);45.08558200147469;7.6678171274496245;6;San Donato;San Donato - Campidoglio - Parella
136;2;NON PARROCCHIALE;N.S. del Suffragio e S. Zita;VIA S. DONATO 31;TORINO;10144;4;011/489143;;;;;;;Chiesa Cattolica;Fest.7.30-9.30-10.30;;;;POINT (7.665022025764455 45.08002750695606);45.08002750695606;7.665022025764455;6;San Donato;San Donato - Campidoglio - Parella
48;1;PARROCCHIALE;S. Anna;VIA BRIONE 40;TORINO;10143;4;011 7496103;011 7496103;;http://www4.diocesi.torino.it/schede/parr050.htm;4.0;9.0;PAVANELLO don Davide;Chiesa Cattolica;;50.0;14200.0;Unita' Pastorale N.09 - S.Alfonso;POINT (7.646925183643807 45.07865294711585);45.07865294711585;7.646925183643807;6;San Donato;San Donato - Campidoglio - Parella
46;1;PARROCCHIALE;S. Alfonso Maria de' Liguori;VIA NETRO 3;TORINO;10143;4;011 740485;011 7712403;parr.s.alfonso@diocesi.torino.it;http://www.diocesi.torino.it/parr048;4.0;9.0;CHIAUSSA don Davide;Chiesa Cattolica;;48.0;14800.0;Unita' Pastorale N.09 - S.Alfonso;POINT (7.65503634228727 45.08103207107305);45.081032071073054;7.65503634228727;6;San Donato;San Donato - Campidoglio - Parella
110;1;PARROCCHIALE;Trasfigurazione del Signore;VIA SPOLETO 12;TORINO;10143;4;011 756718;011 756718;parr.trasfigurazione@diocesi.torino.it;http://www4.diocesi.torino.it/schede/parr109.htm;5.0;9.0;TICCHIATI don Maurizio;Chiesa Cattolica;;109.0;3490.0;Unita' Pastorale N.09 - S.Alfonso;POINT (7.65468896487773 45.0878923396319);45.0878923396319;7.65468896487773;6;San Donato;San Donato - Campidoglio - Parella
20;1;PARROCCHIALE;Madonna Addolorata;CORSO MONCALIERI 227;TORINO;10133;8;011 6613144;;;http://www.diocesi.torino.it/parr020;10.0;22.0;FERRARA don Arcangelo Antonio;Chiesa Cattolica;;20.0;1600.0;Unita' Pastorale N.22 - Cavoretto;POINT (7.682439793689821 45.03934571015338);45.03934571015338;7.682439793689821;22;Borgo Poe Cavoretto;San Salvario - Cavoretto - Borgo Po - Nizza Millefonti - Lingotto - Filadelfia
44;1;PARROCCHIALE;S. Agnese Vergine e Martire;VIA VOLTURNO 2;TORINO;10133;8;011 6602148;;;http://www4.diocesi.torino.it/schede/parr046.htm;10.0;22.0;MARCHESI don Giovanni;Chiesa Cattolica;;46.0;3900.0;Unita' Pastorale N.22 - Cavoretto;POINT (7.693372707929766 45.05676068325356);45.05676068325356;7.6933727079297665;22;Borgo Poe Cavoretto;San Salvario - Cavoretto - Borgo Po - Nizza Millefonti - Lingotto - Filadelfia
79;1;PARROCCHIALE;S. Margherita Vergine e Martire;STRADA S. VINCENZO 146;TORINO;10131;8;011 8194320;;;http://www4.diocesi.torino.it/schede/parr082.htm;10.0;23.0;GOTTARDO don Roberto;Chiesa Cattolica;;82.0;3000.0;Unita' Pastorale N.23 - Sassi;POINT (7.718830791035866 45.05215737272217);45.05215737272217;7.718830791035866;22;Borgo Poe Cavoretto;San Salvario - Cavoretto - Borgo Po - Nizza Millefonti - Lingotto - Filadelfia
135;2;NON PARROCCHIALE;N.S. del Suffragio;CORSO CASALE 42 bis/B;TORINO;10131;8;011/8197233;;;;;;;Chiesa Cattolica;Fest.9;;;;POINT (7.70352528931805 45.0649278917181);45.0649278917181;7.70352528931805;22;Borgo Poe Cavoretto;San Salvario - Cavoretto - Borgo Po - Nizza Millefonti - Lingotto - Filadelfia
156;2;NON PARROCCHIALE;S. Maria del Monte (Cappuccini);PIAZZALE MONTE DEI CAPPUCCINI 3;TORINO;10131;8;011/6604414;;;;;;;Chiesa Cattolica;Fest. 11-17;;;;POINT (7.697478698725553 45.05959386443625);45.05959386443625;7.697478698725553;22;Borgo Poe Cavoretto;San Salvario - Cavoretto - Borgo Po - Nizza Millefonti - Lingotto - Filadelfia
176;2;NON PARROCCHIALE;Valsalice (Oratorio Salesiano);VIALE ENRICO THOVEZ 37;TORINO;10131;8;011/6601066;;;;;;;Chiesa Cattolica;Fest. 9.30;;;;POINT (7.70204860617052 45.05391845922925);45.05391845922925;7.7020486061705205;22;Borgo Poe Cavoretto;San Salvario - Cavoretto - Borgo Po - Nizza Millefonti - Lingotto - Filadelfia
15;1;PARROCCHIALE;Gran Madre di Dio;PIAZZA GRAN MADRE DI DIO 4;TORINO;10131;8;011 8193572;;;http://www4.diocesi.torino.it/schede/parr015.htm;10.0;22.0;MENZIO don Sandro;Chiesa Cattolica;;15.0;6030.0;Unita' Pastorale N.22 - Cavoretto;POINT (7.698916035744881 45.06204856239005);45.06204856239005;7.698916035744881;22;Borgo Poe Cavoretto;San Salvario - Cavoretto - Borgo Po - Nizza Millefonti - Lingotto - Filadelfia
29;1;PARROCCHIALE;Madonna di Fatima;VIA ORISTANO 8/A;TORINO;10133;8;011 6610656;011 6615948;;http://www4.diocesi.torino.it/schede/parr029.htm;10.0;22.0;SCAVINO don Maurilio;Chiesa Cattolica;;29.0;3300.0;Unita' Pastorale N.22 - Cavoretto;POINT (7.678158838940469 45.01872230848746);45.01872230848746;7.678158838940469;22;Borgo Poe Cavoretto;San Salvario - Cavoretto - Borgo Po - Nizza Millefonti - Lingotto - Filadelfia
88;1;PARROCCHIALE;S. Pietro in Vincoli;VIA S. ROCCO 29;TORINO;10133;8;011 6612392;;;http://www4.diocesi.torino.it/schede/parr091.htm;10.0;22.0;FINI don Paolo;Chiesa Cattolica;;91.0;3980.0;Unita' Pastorale N.22 - Cavoretto;POINT (7.685369850806362 45.02929620657206);45.029296206572056;7.685369850806362;22;Borgo Poe Cavoretto;San Salvario - Cavoretto - Borgo Po - Nizza Millefonti - Lingotto - Filadelfia
123;2;NON PARROCCHIALE;Madonna del Buon Consiglio;VIA CURTATONE 17;TORINO;10131;8;011/6604386;;;;;;;Chiesa Cattolica;Fest.7.30-10.30;;;;POINT (7.69679389138434 45.05731383036635);45.057313830366354;7.69679389138434;22;Borgo Poe Cavoretto;San Salvario - Cavoretto - Borgo Po - Nizza Millefonti - Lingotto - Filadelfia
130;2;NON PARROCCHIALE;Maria Janua Coeli (Casa Riposo C. Alberto);CORSO CASALE 56;TORINO;10131;8;011/4428211;;;;;;;Chiesa Cattolica;"Fest.10; Prefet.17";;;;POINT (7.706611930397393 45.06611471121825);45.066114711218255;7.706611930397393;22;Borgo Poe Cavoretto;San Salvario - Cavoretto - Borgo Po - Nizza Millefonti - Lingotto - Filadelfia
134;2;NON PARROCCHIALE;N.S. del Rocciamelone (Oasi S. Chiara);VIA LUISA DEL CARRETTO 6;TORINO;10131;8;011/8194523;;;;;;;Chiesa Cattolica;Fest.8;;;;POINT (7.70635742693541 45.06098450998463);45.06098450998463;7.70635742693541;22;Borgo Poe Cavoretto;San Salvario - Cavoretto - Borgo Po - Nizza Millefonti - Lingotto - Filadelfia
103;1;PARROCCHIALE;Santi Vito, Modesto e Crescenzia;STRADA S. VITO REVIGLIASCO 216;TORINO;10133;8;011 6603166;;;http://www4.diocesi.torino.it/schede/parr104.htm;10.0;22.0;ADRIANO can. Valerio;Chiesa Cattolica;;104.0;1215.0;Unita' Pastorale N.22 - Cavoretto;POINT (7.697251009322594 45.04291805479136);45.04291805479136;7.697251009322594;22;Borgo Poe Cavoretto;San Salvario - Cavoretto - Borgo Po - Nizza Millefonti - Lingotto - Filadelfia
21;1;PARROCCHIALE;Madonna degli Angeli;VIA CARLO ALBERTO 39;TORINO;10123;1;011 8127520;011 8122237;parr021@aol.it;http://www4.diocesi.torino.it/parr021/;1.0;2.0;PELLEGRINO don Michele;Chiesa Cattolica;;21.0;4500.0;Unita' Pastorale N.02 - S.Massimo;POINT (7.683573649308502 45.0645797847195);45.0645797847195;7.683573649308502;1;Centro;Centro - Crocetta
50;1;PARROCCHIALE;S. Barbara Vergine e Martire;VIA ETTORE PERRONE 11;TORINO;10122;1;011 546185;011 548277;;http://www4.diocesi.torino.it/schede/parr052.htm;1.0;1.0;GAUDE don Pier Giuseppe;Chiesa Cattolica;;52.0;8000.0;Unita' Pastorale N.01 - Cattedrale;POINT (7.672653388419996 45.07266263257408);45.07266263257408;7.672653388419996;1;Centro;Centro - Crocetta
53;1;PARROCCHIALE;S. Carlo Borromeo;PIAZZA (COMITATO LIBERAZIONE NAZIONALE) C.L.N. 236 bis;TORINO;10121;1;011 5620922;011 5064539;;http://www4.diocesi.torino.it/schede/parr055.htm;1.0;2.0;AZZARIO padre Mario M. O.S.M.;Chiesa Cattolica;;55.0;2215.0;Unita' Pastorale N.02 - S.Massimo;POINT (7.681588245157543 45.06683244591858);45.06683244591858;7.681588245157543;1;Centro;Centro - Crocetta
65;1;PARROCCHIALE;S. Giovanni Battista - Cattedrale Metropolitana;VIA VENTI SETTEMBRE 87;TORINO;10122;1;011 4361540;011 4360790;;http://www4.diocesi.torino.it/schede/parr001.htm;1.0;1.0;FRANCO can. Carlo;Chiesa Cattolica;;1.0;5500.0;Unita' Pastorale N.01 - Cattedrale;POINT (7.684470785553708 45.07307501018849);45.07307501018849;7.684470785553708;1;Centro;Centro - Crocetta
95;1;PARROCCHIALE;S. Tommaso Apostolo;VIA MONTE DI PIETA' 11;TORINO;10121;1;011 544667 ???;;;http://www4.diocesi.torino.it/schede/parr098.htm;1.0;2.0;FRANCO can. Carlo;Chiesa Cattolica;;98.0;;Unita' Pastorale N.01 - Cattedrale;POINT (7.682299044193021 45.07042800853058);45.070428008530584;7.682299044193021;1;Centro;Centro - Crocetta
101;1;PARROCCHIALE;Santi Angeli Custodi;VIA S. QUINTINO 37;TORINO;10121;1;011 545737;;;http://www4.diocesi.torino.it/schede/parr100.htm;2.0;3.0;CATTANEO don Ettore Maria;Chiesa Cattolica;;100.0;9000.0;Unita' Pastorale N.03 - Crocetta;POINT (7.669299117644424 45.06736579134759);45.06736579134759;7.669299117644424;1;Centro;Centro - Crocetta
104;1;PARROCCHIALE;SS. Annunziata;VIA S. OTTAVIO 5;TORINO;10124;1;011 8171423;011 8150308;parr.annunziata@diocesi.torino.it;http://www.annunziata.to.it;1.0;2.0;STERMIERI don Ezio;Chiesa Cattolica;;105.0;6250.0;Unita' Pastorale N.02 - S.Massimo;POINT (7.693182900414599 45.06714382544721);45.06714382544721;7.693182900414599;1;Centro;Centro - Crocetta
115;2;NON PARROCCHIALE;Corpus Domini - Basilica;PIAZZA CORPUS DOMINI 18/B;TORINO;10122;1;011/4366025;;;;;;;Chiesa Cattolica;Fest.10;;;;POINT (7.682849694784596 45.07266183859974);45.072661838599736;7.682849694784596;1;Centro;Centro - Crocetta
122;2;NON PARROCCHIALE;Immacolata Concezione;VIA ARSENALE 20/A;TORINO;10121;1;;;;;;;;Chiesa Cattolica;;;;;POINT (7.679016627157128 45.06723919848145);45.06723919848145;7.679016627157128;1;Centro;Centro - Crocetta
143;2;NON PARROCCHIALE;S. Chiara;VIA DELLE ORFANE 15;TORINO;10122;1;011/4363322;;;;;;;Chiesa Cattolica;Fest. 7;;;;POINT (7.67934381399425 45.07561023046966);45.07561023046966;7.67934381399425;1;Centro;Centro - Crocetta
144;2;NON PARROCCHIALE;S. Cristina;PIAZZA (COMITATO LIBERAZIONE NAZIONALE) C.L.N. 231 bis;TORINO;10123;1;011/539281;;;;;;;Chiesa Cattolica;"Fest.10.30-11.30-18.30; Prefest. 18.30";;;;POINT (7.682237374518676 45.06673807815998);45.06673807815998;7.682237374518676;1;Centro;Centro - Crocetta
147;2;NON PARROCCHIALE;S. Filippo Neri;VIA MARIA VITTORIA 5;TORINO;10123;1;011/538456;;;;;;;Chiesa Cattolica;"Fest.11.30; Prefest.18.30";;;;POINT (7.684777516463757 45.06791010434381);45.06791010434381;7.684777516463757;1;Centro;Centro - Crocetta
149;2;NON PARROCCHIALE;S. Francesco di Sales;VIA DEI MILLE 25;TORINO;10123;1;011/8127419;;;;;;;Chiesa Cattolica;"Fest.11-17; Prefest.17";;;;POINT (7.689908894499847 45.06172510005254);45.06172510005254;7.689908894499847;1;Centro;Centro - Crocetta
158;2;NON PARROCCHIALE;S. Maria di Piazza;VIA S. MARIA 4/A;TORINO;10122;1;011/5620382;;;;;;;Chiesa Cattolica;"Fest. 8.30-11.30-18.30; Prefest. 18.30";;;;POINT (7.678339658681294 45.0719560135145);45.0719560135145;7.678339658681294;1;Centro;Centro - Crocetta
160;2;NON PARROCCHIALE;S. Michele Arcangelo (di rito bizantino);VIA GIOVANNI GIOLITTI 42;TORINO;10123;1;011/8173450;;;;;;;Chiesa Cattolica;Fest. 10;;;;POINT (7.690041263234638 45.06415979451977);45.064159794519774;7.6900412632346375;1;Centro;Centro - Crocetta
162;2;NON PARROCCHIALE;S. Pelagia;VIA S. MASSIMO 21;TORINO;10123;1;;;;;;;;Chiesa Cattolica;;;;;POINT (7.690103101146478 45.06518308326982);45.06518308326982;7.690103101146478;1;Centro;Centro - Crocetta
171;2;NON PARROCCHIALE;SS. Martiri;VIA GIUSEPPE GARIBALDI 25;TORINO;10122;1;011/5622581;;;;;;;Chiesa Cattolica;"Fest. 18; Prefest. 18";;;;POINT (7.679548548352058 45.07310938615984);45.07310938615984;7.6795485483520585;1;Centro;Centro - Crocetta
172;2;NON PARROCCHIALE;SS. Maurizio e Lazzaro - Basilica;VIA MILANO 20;TORINO;10122;1;011/4361026;;;;;;;Chiesa Cattolica;chiusa il lunedý;;;;POINT (7.682681979808629 45.0751851072085);45.0751851072085;7.6826819798086285;1;Centro;Centro - Crocetta
174;2;NON PARROCCHIALE;SS. Trinita';VIA GIUSEPPE GARIBALDI 6;TORINO;10122;1;;;;;;;;Chiesa Cattolica;;;;;POINT (7.683281616989053 45.07190275263335);45.07190275263335;7.683281616989053;1;Centro;Centro - Crocetta
177;2;NON PARROCCHIALE;Visitazione;VIA VENTI SETTEMBRE 23;TORINO;10121;1;011/543979;;;;;;;Chiesa Cattolica;"Fest. 11.30-12.15-17.30; Prefest. 18.15";;;;POINT (7.679734342111455 45.06605564634341);45.06605564634341;7.6797343421114554;1;Centro;Centro - Crocetta
45;1;PARROCCHIALE;S. Agostino Vescovo;VIA S. CHIARA 9;TORINO;10122;1;011 4368833;011 4360185;parr.s.agostino@diocesi.torino.it;http://www4.diocesi.torino.it/schede/parr047.htm;1.0;1.0;PACINI can. Andrea;Chiesa Cattolica;;47.0;2550.0;Unita' Pastorale N.01 - Cattedrale;POINT (7.679831179666929 45.07570011393899);45.075700113938986;7.6798311796669285;1;Centro;Centro - Crocetta
55;1;PARROCCHIALE;S. Dalmazzo Martire;VIA DELLE ORFANE 3;TORINO;10122;1;011 4366628;;;http://www4.diocesi.torino.it/schede/parr058.htm;1.0;1.0;ROSSI padre Fabrizio B.;Chiesa Cattolica;;58.0;1900.0;Unita' Pastorale N.01 - Cattedrale;POINT (7.678330986762081 45.07416613177357);45.07416613177357;7.678330986762081;1;Centro;Centro - Crocetta
22;1;PARROCCHIALE;Madonna del Carmine;VIA DEL CARMINE 3;TORINO;10122;1;011 4369525;;;http://www4.diocesi.torino.it/schede/parr022.htm;1.0;1.0;GAUDE don Pier Giuseppe;Chiesa Cattolica;;22.0;;Unita' Pastorale N.01 - Cattedrale;POINT (7.676149552812358 45.0753148674205);45.075314867420495;7.676149552812358;1;Centro;Centro - Crocetta
58;1;PARROCCHIALE;S. Francesco da Paola;VIA PO 16;TORINO;10123;1;011 883605;011 8170144;;http://www4.diocesi.torino.it/schede/parr062.htm;1.0;2.0;FARANDA don Sandro;Chiesa Cattolica;;62.0;4200.0;Unita' Pastorale N.02 - S.Massimo;POINT (7.689469889478647 45.06845602725055);45.06845602725055;7.689469889478647;1;Centro;Centro - Crocetta
82;1;PARROCCHIALE;S. Massimo Vescovo di Torino;VIA DEI MILLE 28;TORINO;10123;1; 011 882858;011 8126703;;http://www4.diocesi.torino.it/schede/parr085.htm;1.0;2.0;MANZO don Franco;Chiesa Cattolica;;85.0;5500.0;Unita' Pastorale N.02 - S.Massimo;POINT (7.688144130361028 45.06224005449952);45.06224005449952;7.688144130361028;1;Centro;Centro - Crocetta
114;2;NON PARROCCHIALE;Consolata - Santuario Basilica;PIAZZA DELLA CONSOLATA 9/C;TORINO;10122;1;011/4363235;;;;;;;Chiesa Cattolica;"Fest.6.30-8-9-10-11-12-16 (escl.lug-set)-18.15-19.30; Prefest.18.15";;;;POINT (7.678733794284504 45.07645143223967);45.07645143223967;7.678733794284504;1;Centro;Centro - Crocetta
116;2;NON PARROCCHIALE;Cappella dei mercanti (Epifania del Signore);VIA GIUSEPPE GARIBALDI 25;TORINO;10122;1;011/5627226;;;;;;;Chiesa Cattolica;Fest.11;;;;POINT (7.679548548352058 45.07310938615984);45.07310938615984;7.6795485483520585;1;Centro;Centro - Crocetta
132;2;NON PARROCCHIALE;Misericordia;VIA GIUSEPPE BARBAROUX 41;TORINO;10122;1;011/537784;;;;;;;Chiesa Cattolica;Fest.11;;;;POINT (7.676935335379452 45.073228196809);45.073228196809005;7.676935335379452;1;Centro;Centro - Crocetta
142;2;NON PARROCCHIALE;S. Antonio di Padova;VIA S. ANTONIO DA PADOVA 7;TORINO;10121;1;011/5621917;;;;;;;Chiesa Cattolica;"Fest. 9.30-11.30-17.30; Prefest.17.30";;;;POINT (7.665652713414397 45.06866345710783);45.06866345710783;7.6656527134143975;1;Centro;Centro - Crocetta
146;2;NON PARROCCHIALE;S. Domenico;VIA S. DOMENICO 0;TORINO;10122;1;011/5229711;;;;;;;Chiesa Cattolica;"Fest.10-18; Prefest.18";;;;POINT (7.681730760770233 45.07439576381751);45.07439576381751;7.6817307607702325;1;Centro;Centro - Crocetta
148;2;NON PARROCCHIALE;S. Francesco d'Assisi;VIA S. FRANCESCO D'ASSISI 11;TORINO;10122;1;011/5628474;;;;;;;Chiesa Cattolica;"Fest.19.15; Prefest.18.45";;;;POINT (7.680267469499062 45.07162468671095);45.071624686710955;7.6802674694990625;1;Centro;Centro - Crocetta
153;2;NON PARROCCHIALE;S. Giuseppe (Padri Camilliani);VIA S. TERESA 22/B;TORINO;10121;1;011/5628093;;;;;;;Chiesa Cattolica;"Fest. 10.30-18.45; Prefest.18.45";;;;POINT (7.679604844170425 45.0696453485777);45.0696453485777;7.679604844170425;1;Centro;Centro - Crocetta
155;2;NON PARROCCHIALE;S. Lorenzo;VIA PALAZZO DI CITTA' 4;TORINO;10122;1;011/4361527;;;;;;;Chiesa Cattolica;"Fest. 9.30-11-12 (escl. ago) -18.30-21; Prefest. 18.30";;;;POINT (7.684484685812238 45.07208357619661);45.07208357619661;7.6844846858122375;1;Centro;Centro - Crocetta
163;2;NON PARROCCHIALE;S. Rocco (Confraternita);VIA S. FRANCESCO D'ASSISI 1;TORINO;10122;1;011/535323;;;;;;;Chiesa Cattolica;Fest, 10.30;;;;POINT (7.680867002405559 45.07243648920663);45.07243648920663;7.6808670024055585;1;Centro;Centro - Crocetta
166;2;NON PARROCCHIALE;S. Teresa di Gesu';PIAZZETTA S. TERESA 5;TORINO;10121;1;011/538278;;;;;;;Chiesa Cattolica;"Fest. 9-11-19-21; Prefest. 17.30";;;;POINT (7.680963672148057 45.06893506515598);45.068935065155976;7.6809636721480565;1;Centro;Centro - Crocetta
169;2;NON PARROCCHIALE;Spirito Santo;VIA PORTA PALATINA 9;TORINO;10122;1;011/4361050;;;;;;;Chiesa Cattolica;;;;;POINT (7.683186345733166 45.0730040221575);45.0730040221575;7.683186345733166;1;Centro;Centro - Crocetta
243;2;NON PARROCCHIALE;SS. Sudario;VIA PIAVE 14;TORINO;10122;1;011/4365832;;;;;;;Chiesa Cattolica;1¿ domenica del mese: 9.30;;;;POINT (7.676258253785048 45.07635486316207);45.07635486316207;7.676258253785048;1;Centro;Centro - Crocetta
25;1;PARROCCHIALE;Madonna della Divina Provvidenza;VIA VALENTINO CARRERA 11;TORINO;10146;4;011 740272;011 7768832;parrocchia.divina.provvidenza@gmail.com;http://www.diocesi.torino.it/parrocchiadivinaprovvidenza;4.0;10.0;BARAVALLE don Sergio;Chiesa Cattolica;;25.0;13000.0;Unita' Pastorale N.10 - Parella;POINT (7.636046732683265 45.07983600067598);45.079836000675975;7.636046732683265;14;Parella;San Donato - Campidoglio - Parella
64;1;PARROCCHIALE;S. Giovanna d'Arco;VIA BORGOMANERO 50;TORINO;10145;4;011 7496196;011 7496196;santagiovanna@libero.it;http://www4.diocesi.torino.it/schede/parr068.htm;4.0;10.0;TURELLA don Giovanni;Chiesa Cattolica;;68.0;8500.0;Unita' Pastorale N.10 - Parella;POINT (7.641290004518855 45.08175998320099);45.08175998320099;7.641290004518855;14;Parella;San Donato - Campidoglio - Parella
133;2;NON PARROCCHIALE;N.S. de La Salette;VIA MADONNA DELLE SALETTE 20;TORINO;10146;4;011/721200;;;;;;;Chiesa Cattolica;Fest.10.30;;;;POINT (7.617876176074971 45.07606531741285);45.076065317412855;7.617876176074971;14;Parella;San Donato - Campidoglio - Parella
81;1;PARROCCHIALE;S. Maria Goretti;VIA VITTORIO ACTIS 20;TORINO;10146;4;011 7794827;011 7731517;parr.s.maria.goretti@diocesi.torino.it;http://www.smgoretti.it/home.php;4.0;10.0;GAZZANO don Emilio;Chiesa Cattolica;;84.0;10500.0;Unita' Pastorale N.10 - Parella;POINT (7.619873414780923 45.07903516768698);45.07903516768698;7.619873414780923;14;Parella;San Donato - Campidoglio - Parella
57;1;PARROCCHIALE;S. Ermenegildo Re e Martire;CORSO BERNARDINO TELESIO 98;TORINO;10146;4;011 798097;011 798097;sdenis@unodinoicom.it;http://www4.diocesi.torino.it/schede/parr060.htm;4.0;10.0;ROGALA padre Stanislaw M.S.;Chiesa Cattolica;;60.0;8000.0;Unita' Pastorale N.10 - Parella;POINT (7.62926763657526 45.08245384346261);45.08245384346261;7.62926763657526;14;Parella;San Donato - Campidoglio - Parella
150;2;NON PARROCCHIALE;S. Giovanna Francesca de Chantal;VIA PAOLO PIO PERAZZO 7;TORINO;10146;4;;;;;;;;Chiesa Cattolica;;;;;POINT (7.619149951005536 45.08264181672038);45.08264181672038;7.619149951005536;14;Parella;San Donato - Campidoglio - Parella
19;1;PARROCCHIALE;La Visitazione;PIAZZA DEL MONASTERO 14;TORINO;10146;4;011 7730184;011 7790780;;http://www4.diocesi.torino.it/schede/parr019.htm;4.0;10.0;CORGIAT LOIA BRANCOT don Renzo;Chiesa Cattolica;;19.0;4500.0;Unita' Pastorale N.10 - Parella;POINT (7.627039215520661 45.07584691400938);45.075846914009375;7.627039215520661;14;Parella;San Donato - Campidoglio - Parella
26;1;PARROCCHIALE;Madonna della Guardia;VIA MONGINEVRO 251;TORINO;10142;3;011 700803;011 700803;torino@ppfmc.it;http://www4.diocesi.torino.it/schede/parr026.htm;3.0;7.0;CANTU' padre Giuseppe O.F.M.;Chiesa Cattolica;;26.0;8300.0;Unita' Pastorale N.07 - Murialdo;POINT (7.620642952166748 45.06442513790955);45.064425137909545;7.620642952166748;13;Pozzo Strada;San Paolo - Cenisia - Pozzo Strada - Cit Turin - Borgata Lesna
39;1;PARROCCHIALE;Nostra Signora del Sacro Cuore di Gesu';VIA ANASTASIO GERMONIO 27;TORINO;10142;3;011 4115573;011 4032800;;http://www4.diocesi.torino.it/schede/parr039.htm;3.0;7.0;BERTOCCO don Dario;Chiesa Cattolica;;39.0;9020.0;Unita' Pastorale N.07 - Murialdo;POINT (7.611201806824593 45.07203232337677);45.07203232337677;7.611201806824593;13;Pozzo Strada;San Paolo - Cenisia - Pozzo Strada - Cit Turin - Borgata Lesna
51;1;PARROCCHIALE;S. Benedetto Abate;VIA LORENZO DELLEANI 24;TORINO;10141;3;011 389376;011 389376;parr.s.benedetto@diocesi.it;http://www4.diocesi.torino.it/schede/parr053.htm;3.0;6.0;MARESCOTTI don Paolo;Chiesa Cattolica;;53.0;8300.0;Unita' Pastorale N.06 - Pozzo Strada;POINT (7.63518298266826 45.06761954819313);45.06761954819313;7.63518298266826;13;Pozzo Strada;San Paolo - Cenisia - Pozzo Strada - Cit Turin - Borgata Lesna
38;1;PARROCCHIALE;Nativita' di Maria Vergine;VIA BARDONECCHIA 161;TORINO;10141;3;011 7790560;011 7728526;parr.nativita.maria@diocesi.torino.it;http://parrocchie.diocesi.torino.it/parr038/;3.0;6.0;PERUCCA don Enrico;Chiesa Cattolica;;38.0;15000.0;Unita' Pastorale N.06 - Pozzo Strada;POINT (7.627130826602924 45.07200652863562);45.07200652863562;7.627130826602924;13;Pozzo Strada;San Paolo - Cenisia - Pozzo Strada - Cit Turin - Borgata Lesna
92;1;PARROCCHIALE;S. Rosa da Lima;VIA BARDONECCHIA 85;TORINO;10139;3;011 386300;;;http://www4.diocesi.torino.it/schede/parr095.htm;3.0;6.0;DEPAOLI don Clemente;Chiesa Cattolica;;95.0;8000.0;Unita' Pastorale N.06 - Pozzo Strada;POINT (7.637373117387909 45.07230823245631);45.07230823245631;7.637373117387909;13;Pozzo Strada;San Paolo - Cenisia - Pozzo Strada - Cit Turin - Borgata Lesna
76;1;PARROCCHIALE;S. Leonardo Murialdo;VIA CHAMBERY 46;TORINO;10142;3;011 720039;;parr.murialdo@diocesi.torino.it;http://www.diocesi.torino.it/parr079;3.0;7.0;VOLATERRA don Roberto;Chiesa Cattolica;;79.0;6300.0;Unita' Pastorale N.07 - Murialdo;POINT (7.618356087119851 45.06924526946647);45.06924526946647;7.618356087119851;13;Pozzo Strada;San Paolo - Cenisia - Pozzo Strada - Cit Turin - Borgata Lesna
8;1;PARROCCHIALE;Gesu' Buon Pastore;VIA MONTE VODICE 11;TORINO;10141;3;011 389939;;gbp@parrocchie.it;http://www.parrocchie.it/torino/gesubp;3.0;6.0;JALLA don Giorgio;Chiesa Cattolica;;8.0;13000.0;Unita' Pastorale N.06 - Pozzo Strada;POINT (7.631963838700663 45.06344714991504);45.06344714991504;7.6319638387006625;13;Pozzo Strada;San Paolo - Cenisia - Pozzo Strada - Cit Turin - Borgata Lesna
28;1;PARROCCHIALE;Madonna di Campagna;VIA GUGLIELMO CARDINALE MASSAIA 98;TORINO;10147;5;011 2296917;011 253945;parr.madonna.campagna@diocesi.torino.it;http://www.diocesi.torino.it/parr028;5.0;13.0;BORTOLOZZO padre Ferruccio O.F.M.;Chiesa Cattolica;;28.0;19500.0;Unita' Pastorale N.13 - Madonna di Campagna;POINT (7.668923332254832 45.10230873058457);45.10230873058457;7.668923332254832;16;Madonna di Campagna;Borgo Vittoria - Madonna di Campagna - Lucento - Vallette
70;1;PARROCCHIALE;S. Giuseppe Benedetto Cottolengo;VIA ANGELO MESSEDAGLIA 21;TORINO;10149;5;011 290992;011 2211780;parr.cottolengo@diocesi.torino.it;http://www.diocesi.torino.it/parr073;5.0;12.0;PROVERA don Roberto S.S.C.;Chiesa Cattolica;;73.0;19000.0;Unita' Pastorale N.12 - Santo Volto;POINT (7.66069227147961 45.09870745256837);45.09870745256837;7.6606922714796095;16;Madonna di Campagna;Borgo Vittoria - Madonna di Campagna - Lucento - Vallette
112;1;PARROCCHIALE;Santo Volto;VIA VAL DELLA TORRE 3;TORINO;10149;5;011 5156480;011 5156482;;http://www.santovolto.com;5.0;12.0;GIORDA can. Mauro;Chiesa Cattolica;;112.0;10400.0;Unita' Pastorale N.12 - Santo Volto;POINT (7.662471006041246 45.09365636795155);45.09365636795155;7.662471006041246;16;Madonna di Campagna;Borgo Vittoria - Madonna di Campagna - Lucento - Vallette
49;1;PARROCCHIALE;S. Antonio Abate;PIAZZA STAMPALIA 17/A;TORINO;10148;5;011 2264559;011 2264559;parr.s.antonio@diocesi.torino.it;http://www4.diocesi.torino.it/schede/parr051.htm;5.0;12.0;REBURDO don Felice Francesco;Chiesa Cattolica;;51.0;9500.0;Unita' Pastorale N.12 - Santo Volto;POINT (7.658381406642328 45.11169687804518);45.11169687804518;7.658381406642328;16;Madonna di Campagna;Borgo Vittoria - Madonna di Campagna - Lucento - Vallette
86;1;PARROCCHIALE;S. Paolo Apostolo;VIA GIUSEPPE MACHERIONE 23;TORINO;10148;5;011 2260313;011 2260313;;http://www4.diocesi.torino.it/schede/parr089.htm;5.0;12.0;CASTAGNERI don Carlo;Chiesa Cattolica;;89.0;9500.0;Unita' Pastorale N.12 - Santo Volto;POINT (7.654204829977882 45.11868904252723);45.11868904252723;7.654204829977882;16;Madonna di Campagna;Borgo Vittoria - Madonna di Campagna - Lucento - Vallette
32;1;PARROCCHIALE;Maria Madre della Chiesa;VIA BALTIMORA 85;TORINO;10137;2;011 366908;011 3270617;mmc_baltimora@email.it;http://www.parrocchie.it/torino/mariamadredellachiesa;8.0;17.0;MOLGORA don Enrico;Chiesa Cattolica;;32.0;7980.0;Unita' Pastorale N.17 - Santa Rita;POINT (7.639526217871213 45.04555130266606);45.045551302666055;7.639526217871213;11;Santa Rita;Santa Rita - Mirafiori
33;1;PARROCCHIALE;Maria Madre di Misericordia;VIA ADA NEGRI 22;TORINO;10136;2;011 369157;;parrocchia@madremisericordia.it;http://www.madremisericordia.it;8.0;18.0;ANDREIS don Quintino;Chiesa Cattolica;;33.0;10000.0;Unita' Pastorale N.18 - S.Ignazio;POINT (7.640874550324763 45.05229487724491);45.05229487724491;7.640874550324763;11;Santa Rita;Santa Rita - Mirafiori
37;1;PARROCCHIALE;Natale del Signore;VIA BOSTON 37;TORINO;10137;2;011 352013;011 3247476;parr.santo.natale@diocesi.torino.it;http://parrocchie.diocesi.torino.it/parr037/;8.0;17.0;CHIABRANDO don Romolo;Chiesa Cattolica;;37.0;17970.0;Unita' Pastorale N.17 - Santa Rita;POINT (7.64088814757904 45.04048322741081);45.04048322741081;7.64088814757904;11;Santa Rita;Santa Rita - Mirafiori
91;1;PARROCCHIALE;S. Rita da Cascia;VIA GIUSEPPE VERNAZZA 38;TORINO;10136;2;011 3290169;011 3290160;parr.s.rita@diocesi.torino.it;http://www.santaritatorino.it;8.0;17.0;BIROLO don Leonardo;Chiesa Cattolica;;94.0;22300.0;Unita' Pastorale N.17 - Santa Rita;POINT (7.646654264647588 45.04579064187778);45.04579064187778;7.646654264647588;11;Santa Rita;Santa Rita - Mirafiori
117;2;NON PARROCCHIALE;Gesu' Bambino;VIA MONFALCONE 28;TORINO;10136;2;011/3290220;;;;;;;Chiesa Cattolica;Fest.9.30 (ecl. lug-ago);;;;POINT (7.646480714732152 45.04896644827588);45.048966448275884;7.646480714732152;11;Santa Rita;Santa Rita - Mirafiori
63;1;PARROCCHIALE;S. Giorgio Martire;VIA LAZZARO SPALLANZANI 7;TORINO;10134;1;011 3181460;01119706478;;http://www.sangiorgiomartire.eu/;2.0;3.0;BERTOLA don Carlo;Chiesa Cattolica;;67.0;13500.0;Unita' Pastorale N.03 - Crocetta;POINT (7.662522120243817 45.04828916006012);45.04828916006012;7.662522120243817;11;Santa Rita;Centro - Crocetta
128;2;NON PARROCCHIALE;Maria Consolatrice;VIA CAPRERA 46;TORINO;10136;2;011/390538;;;;;;;Chiesa Cattolica;Fest.8-11(escl.lug-ago);;;;POINT (7.646558969262155 45.05046563354356);45.05046563354356;7.646558969262155;11;Santa Rita;Santa Rita - Mirafiori
36;1;PARROCCHIALE;Maria Speranza Nostra;VIA CERESOLE 44;TORINO;10155;6;011 2424739;;;http://www4.diocesi.torino.it/schede/parr036.htm;7.0;14.0;MSUMANGE padre Godfrey Poertphal Alois;Chiesa Cattolica;;36.0;17150.0;Unita' Pastorale N.14 - Barriera di Milano;POINT (7.690125100668727 45.0969659646226);45.096965964622605;7.690125100668727;18;Barriera di Milano;Barriera di Milano - Regio Parco - Barca - Bertolla - Falchera - Rebaudengo - Villaretto
56;1;PARROCCHIALE;S. Domenico Savio;VIA GIOVANNI PAISIELLO 37;TORINO;10154;6;011 2304112;011 2304167;parrocchia@michelerua.it;http://www.michelerua.it/parrocchia.htm;7.0;14.0;CATTANE don Giovanni S.D.B.;Chiesa Cattolica;;59.0;12000.0;Unita' Pastorale N.14 - Barriera di Milano;POINT (7.701441088558833 45.09146907538388);45.09146907538388;7.701441088558833;18;Barriera di Milano;Barriera di Milano - Regio Parco - Barca - Bertolla - Falchera - Rebaudengo - Villaretto
34;1;PARROCCHIALE;Maria Regina della Pace;VIA MALONE 19;TORINO;10154;6;011 2482816;011 2472800;mariareginadellapace@gmail.com;http://mariareginadellapace.110mb.com;7.0;14.0;PIZZOMIGLIO padre Ottaviano O.M.V.;Chiesa Cattolica;;34.0;19130.0;Unita' Pastorale N.14 - Barriera di Milano;POINT (7.692803801698195 45.08934123755408);45.08934123755408;7.6928038016981946;18;Barriera di Milano;Barriera di Milano - Regio Parco - Barca - Bertolla - Falchera - Rebaudengo - Villaretto
12;1;PARROCCHIALE;Gesu' Operaio;VIA RUGGERO LEONCAVALLO 18;TORINO;10154;6;011 2482420;011 2406661;parr.gesu.operaio@diocesi.torino.it;http://www4.diocesi.torino.it/schede/parr012.htm;7.0;14.0;BELTRAMEA don Alberto;Chiesa Cattolica;;12.0;11200.0;Unita' Pastorale N.14 - Barriera di Milano;POINT (7.698101627050152 45.08563072878719);45.08563072878719;7.698101627050152;18;Barriera di Milano;Barriera di Milano - Regio Parco - Barca - Bertolla - Falchera - Rebaudengo - Villaretto
43;1;PARROCCHIALE;Risurrezione del Signore;VIA MONTE ROSA 150;TORINO;10154;6;011 200078;;;http://www.oratorioresu.it/;7.0;15.0;PICCOTTINO don Carlo S.D.B.;Chiesa Cattolica;;43.0;7500.0;Unita' Pastorale N.15 - Rebaudengo-Falchera;POINT (7.700826743319007 45.09886750363358);45.09886750363358;7.700826743319007;20;Regio Parco;Barriera di Milano - Regio Parco - Barca - Bertolla - Falchera - Rebaudengo - Villaretto
60;1;PARROCCHIALE;S. Gaetano da Thiene;VIA S. GAETANO THIENE 2;TORINO;10154;6;011 202349;;;http://www4.diocesi.torino.it/schede/parr064.htm;6.0;16.0;TENDERINI don Secondo;Chiesa Cattolica;;64.0;6250.0;Unita' Pastorale N.16 - Santa Croce;POINT (7.713444979764212 45.08980218080416);45.08980218080416;7.713444979764212;20;Regio Parco;Barriera di Milano - Regio Parco - Barca - Bertolla - Falchera - Rebaudengo - Villaretto
85;1;PARROCCHIALE;S. Nicola Vescovo;VIA SANDRO BOTTICELLI 219;TORINO;10154;6;011 2050056;;;http://www4.diocesi.torino.it/schede/parr088.htm;6.0;16.0;TENDERINI don Secondo;Chiesa Cattolica;;88.0;3410.0;Unita' Pastorale N.16 - Santa Croce;POINT (7.71567713994316 45.0956955124361);45.0956955124361;7.71567713994316;20;Regio Parco;Barriera di Milano - Regio Parco - Barca - Bertolla - Falchera - Rebaudengo - Villaretto
139;2;NON PARROCCHIALE;Risurrezione del Signore;VIA LORENZO PEROSI 11;TORINO;10154;6;011/204178;;;;;;;Chiesa Cattolica;Fest.9.30;;;;POINT (7.706698275445508 45.09675685528418);45.09675685528418;7.706698275445508;20;Regio Parco;Barriera di Milano - Regio Parco - Barca - Bertolla - Falchera - Rebaudengo - Villaretto
154;2;NON PARROCCHIALE;S. Giuseppe;VIA MONCRIVELLO 12/A;TORINO;10154;6;011/202349;;;;;;;Chiesa Cattolica;Prefest.18;;;;POINT (7.708157200119643 45.08959654952834);45.08959654952834;7.7081572001196434;20;Regio Parco;Barriera di Milano - Regio Parco - Barca - Bertolla - Falchera - Rebaudengo - Villaretto
73;1;PARROCCHIALE;S. Grato in Bertolla;STRADA BERTOLLA 113;TORINO;10156;6;011 2730187;;;http://www4.diocesi.torino.it/schede/parr076.htm;6.0;16.0;CALZONI don Alberto;Chiesa Cattolica;;76.0;2610.0;Unita' Pastorale N.16 - Santa Croce;POINT (7.74639484378892 45.10018867431884);45.10018867431884;7.74639484378892;20;Regio Parco;Barriera di Milano - Regio Parco - Barca - Bertolla - Falchera - Rebaudengo - Villaretto
61;1;PARROCCHIALE;S. Giacomo Apostolo;VIA DAMIANO CHIESA 53;TORINO;10156;6;011 2730537;011 2749991;parr.s.giacomo@diocesi.torino.it;http://www.diocesi.torino.it/parr065;6.0;16.0;CALZONI don Alberto;Chiesa Cattolica;;65.0;9760.0;Unita' Pastorale N.16 - Santa Croce;POINT (7.730165992567525 45.1006890826774);45.1006890826774;7.730165992567525;20;Regio Parco;Barriera di Milano - Regio Parco - Barca - Bertolla - Falchera - Rebaudengo - Villaretto
59;1;PARROCCHIALE;S. Francesco di Sales;VIA MALTA 42;TORINO;10141;3;011 337462;011 337462;;http://www.diocesi.torino.it/parr063;3.0;5.0;AVATANEO don Giacomo;Chiesa Cattolica;;63.0;6500.0;Unita' Pastorale N.05 - S.Paolo;POINT (7.64646240739657 45.05652616151769);45.05652616151769;7.64646240739657;4;San Paolo;San Paolo - Cenisia - Pozzo Strada - Cit Turin - Borgata Lesna
52;1;PARROCCHIALE;S. Bernardino da Siena;VIA S. BERNARDINO 13;TORINO;10141;3;011 3852170;011 3828754;parr.s.bernardino@davide.it;http://www.diocesi.torino.it/parr054/;3.0;5.0;PRADELLA padre Fedele Gervasio O.F.M.;Chiesa Cattolica;;54.0;18500.0;Unita' Pastorale N.05 - S.Paolo;POINT (7.646315916782646 45.06208265541873);45.062082655418735;7.646315916782646;4;San Paolo;San Paolo - Cenisia - Pozzo Strada - Cit Turin - Borgata Lesna
67;1;PARROCCHIALE;S. Giovanni Maria Vianney;VIA GIULIO GIANELLI 8;TORINO;10135;8;011 3171120;;parr.vianney@diocesi.torino.it;http://www.parrocchiavianney.it;9.0;21.0;ROLANDO don Ester;Chiesa Cattolica;;70.0;13750.0;Unita' Pastorale N.21 - Lingotto;POINT (7.644170573351014 45.02133844249289);45.02133844249289;7.644170573351014;10;Mercati generali;San Salvario - Cavoretto - Borgo Po - Nizza Millefonti - Lingotto - Filadelfia
78;1;PARROCCHIALE;S. Marco Evangelista;VIA EDOARDO DANEO 19;TORINO;10135;8;011 612714;;;http://www4.diocesi.torino.it/schede/parr081.htm;9.0;21.0;SARZINI don Franco;Chiesa Cattolica;;81.0;4550.0;Unita' Pastorale N.21 - Lingotto;POINT (7.64217810247083 45.02593701688926);45.02593701688926;7.64217810247083;10;Mercati generali;San Salvario - Cavoretto - Borgo Po - Nizza Millefonti - Lingotto - Filadelfia
27;1;PARROCCHIALE;Madonna delle Rose;VIA ROSARIO SANTA FE' 7;TORINO;10134;8;011 3190216;011 3190216;parr.madonna.rose@diocesi.torino.it;http://www4.diocesi.torino.it/schede/parr027.htm;8.0;17.0;MAZZOLENI padre Mario O.P.;Chiesa Cattolica;;27.0;20200.0;Unita' Pastorale N.17 - Santa Rita;POINT (7.650614936879047 45.03511228935911);45.03511228935911;7.650614936879047;10;Mercati generali;San Salvario - Cavoretto - Borgo Po - Nizza Millefonti - Lingotto - Filadelfia
17;1;PARROCCHIALE;Immacolata Concezione e S. Giovanni Battista;VIA MONTE CORNO 36;TORINO;10127;8;011 /3171351;011 3035230;parr.immacolata.lingotto@diocesi.torino.it;http://www.diocesi.torino.it/parr017;9.0;21.0;FASSINO don Fabrizio;Chiesa Cattolica;;17.0;7000.0;Unita' Pastorale N.21 - Lingotto;POINT (7.653595291358529 45.02484629335272);45.02484629335272;7.653595291358529;10;Mercati generali;San Salvario - Cavoretto - Borgo Po - Nizza Millefonti - Lingotto - Filadelfia
68;1;PARROCCHIALE;S. Giulia Vergine e Martire;PIAZZA S. GIULIA 7 bis;TORINO;10124;7;011 8178863;011 8158314;parr.s.giulia@libero.it;http://www.parrocchiasantagiulia.com/ ;6.0;2.0;SOLDI don Primo;Chiesa Cattolica;;71.0;11000.0;Unita' Pastorale N.02 - S.Massimo;POINT (7.699781819810817 45.07009216912613);45.07009216912613;7.699781819810817;8;Vanchiglia;Aurora, Vanchiglia - Sassi - Madonna del Pilone
69;1;PARROCCHIALE;S. Giulio d'Orta;CORSO CADORE 17 int. 3;TORINO;10153;7;011 8995632;;parr.s.g.orta@diocesi.torino.it;http://www.diocesi.torino.it/parr072;6.0;16.0;BOSA don Silvano;Chiesa Cattolica;;72.0;8650.0;Unita' Pastorale N.16 - Santa Croce;POINT (7.723799344667238 45.07574686875009);45.07574686875009;7.723799344667238;8;Vanchiglia;Aurora, Vanchiglia - Sassi - Madonna del Pilone
107;1;PARROCCHIALE;SS. Nome di Gesu';CORSO REGINA MARGHERITA 68 scala D;TORINO;10153;7;011 4360150;;;http://www4.diocesi.torino.it/schede/parr106.htm;6.0;16.0;LUPARIA don Benito;Chiesa Cattolica;;106.0;8370.0;Unita' Pastorale N.16 - Santa Croce;POINT (7.696348168602262 45.07311346120356);45.07311346120356;7.696348168602262;8;Vanchiglia;Aurora, Vanchiglia - Sassi - Madonna del Pilone
99;1;PARROCCHIALE;Santa Croce;VIA GATTINARA 12;TORINO;10153;7;011 888247;011 8607813;parr.santa.croce@diocesi.torino.it;http://www.s-croce.it/;6.0;16.0;POPULIN don Roberto;Chiesa Cattolica;;57.0;10550.0;Unita' Pastorale N.16 - Santa Croce;POINT (7.708581499889799 45.07422334261443);45.07422334261443;7.7085814998897995;8;Vanchiglia;Aurora, Vanchiglia - Sassi - Madonna del Pilone
72;1;PARROCCHIALE;S. Giuseppe Lavoratore;CORSO VERCELLI 206;TORINO;10155;6;011 2463294;;parr.s.giuseppe@diocesi.torino.it;http://www4.diocesi.torino.it/schede/parr075.htm;7.0;15.0;RECLUTA don Livio S.D.B.;Chiesa Cattolica;;75.0;12050.0;Unita' Pastorale N.15 - Rebaudengo-Falchera;POINT (7.696769460117365 45.10572364902507);45.10572364902507;7.696769460117365;19;Falchera;Barriera di Milano - Regio Parco - Barca - Bertolla - Falchera - Rebaudengo - Villaretto
89;1;PARROCCHIALE;S. Pio X;VIA DEI PIOPPI 15;TORINO;10156;6;011 2620827;;;http://www4.diocesi.torino.it/schede/parr092.htm;7.0;15.0;MONTANELLI don Adelino;Chiesa Cattolica;;92.0;3370.0;Unita' Pastorale N.15 - Rebaudengo-Falchera;POINT (7.710103290724948 45.12647215919073);45.126472159190726;7.710103290724948;19;Falchera;Barriera di Milano - Regio Parco - Barca - Bertolla - Falchera - Rebaudengo - Villaretto
83;1;PARROCCHIALE;S. Michele Arcangelo;CORSO VERCELLI 396;TORINO;10156;6;011 2621792;;;http://www4.diocesi.torino.it/schede/parr086.htm;7.0;15.0;AMORE don Antonio;Chiesa Cattolica;;86.0;4440.0;Unita' Pastorale N.15 - Rebaudengo-Falchera;POINT (7.706262011551646 45.117349464738);45.117349464738;7.7062620115516465;19;Falchera;Barriera di Milano - Regio Parco - Barca - Bertolla - Falchera - Rebaudengo - Villaretto
14;1;PARROCCHIALE;Gesu' Salvatore;VIA DEGLI ULIVI 25;TORINO;10156;6;011 2623645;011 2621863;;http://www4.diocesi.torino.it/schede/parr014.htm;7.0;15.0;MONTANELLI don Adelino;Chiesa Cattolica;;14.0;3610.0;Unita' Pastorale N.15 - Rebaudengo-Falchera;POINT (7.713048595845859 45.13184072363521);45.131840723635214;7.7130485958458594;19;Falchera;Barriera di Milano - Regio Parco - Barca - Bertolla - Falchera - Rebaudengo - Villaretto
161;2;NON PARROCCHIALE;S. Michele Arcangelo (succursale);CORSO VERCELLI 483 int. 1;TORINO;10156;6;;;;;;;;Chiesa Cattolica;;;;;POINT (7.709814434246504 45.11888321856054);45.11888321856054;7.709814434246504;19;Falchera;Barriera di Milano - Regio Parco - Barca - Bertolla - Falchera - Rebaudengo - Villaretto
80;1;PARROCCHIALE;S. Maria di Superga;STRADA ALLA PARROCCHIA DI SOPERGA 106;TORINO;10132;7;011 890083;;;http://www4.diocesi.torino.it/schede/parr083.htm;10.0;23.0;AUDISIO don Stefano;Chiesa Cattolica;;;;Unita' Pastorale N.23 - Sassi;POINT (7.768005704420552 45.07857634670023);45.07857634670023;7.768005704420552;21;Madonna del Pilone;Aurora, Vanchiglia - Sassi - Madonna del Pilone
168;2;NON PARROCCHIALE;Sacro Cuore di Gesu' (SS.Redentore);STRADA VAL S. MARTINO 109;TORINO;10131;7;011/8191045;;;;;;;Chiesa Cattolica;Fest.8.30;;;;POINT (7.721903897595557 45.05620622384835);45.05620622384835;7.721903897595557;21;Madonna del Pilone;Aurora, Vanchiglia - Sassi - Madonna del Pilone
301;2;NON PARROCCHIALE;Gesu' Maestro (B.ta Rosa);STRADA DEL MEISINO 23;TORINO;10132;7;0118991810;;;;;;;Chiesa Cattolica;Fest.11: Prefest. 17;;;;POINT (7.732684133525154 45.08822831926657);45.08822831926657;7.732684133525154;21;Madonna del Pilone;Aurora, Vanchiglia - Sassi - Madonna del Pilone
23;1;PARROCCHIALE;Madonna del Pilone;CORSO CASALE 195;TORINO;10132;7;011 8980448;011 8980448;;http://www.creasitogratis.net/madonnadelpilone;10.0;23.0;TESIO don Giovanni;Chiesa Cattolica;;23.0;3750.0;Unita' Pastorale N.23 - Sassi;POINT (7.724484373881768 45.07002703070811);45.07002703070811;7.724484373881768;21;Madonna del Pilone;Aurora, Vanchiglia - Sassi - Madonna del Pilone
74;1;PARROCCHIALE;S. Grato in Mongreno;STRADA MONGRENO 344;TORINO;10132;7;011 890676;;;http://www4.diocesi.torino.it/schede/parr077.htm;10.0;23.0;AUDISIO don Stefano;Chiesa Cattolica;;;;Unita' Pastorale N.23 - Sassi;POINT (7.753249201564436 45.06172956154384);45.061729561543835;7.753249201564436;21;Madonna del Pilone;Aurora, Vanchiglia - Sassi - Madonna del Pilone
3;1;PARROCCHIALE;Assunzione di Maria Vergine - Reaglie;STRADA DI REAGLIE 1;TORINO;10132;7;346 0840103;;;http://www4.diocesi.torino.it/schede/parr004.htm;10.0;23.0;COLLO can. Carlo;Chiesa Cattolica;;4.0;1050.0;Unita' Pastorale N.23 - Sassi;POINT (7.744578372558491 45.05820438918193);45.05820438918193;7.744578372558491;21;Madonna del Pilone;Aurora, Vanchiglia - Sassi - Madonna del Pilone
24;1;PARROCCHIALE;Madonna del Rosario;PIAZZA GIOVANNI DALLE BANDE NERE 15;TORINO;10132;7;011 8980192;;;http://www4.diocesi.torino.it/schede/parr024.htm;10.0;23.0;AUDISIO don Stefano;Chiesa Cattolica;;24.0;4740.0;Unita' Pastorale N.23 - Sassi;POINT (7.733394498304824 45.08019845230407);45.08019845230407;7.733394498304824;21;Madonna del Pilone;Aurora, Vanchiglia - Sassi - Madonna del Pilone
40;1;PARROCCHIALE;Nostra Signora del SS. Sacramento;VIA CASALBORGONE 16;TORINO;10132;7;011 8191531;011 8191531;;http://www4.diocesi.torino.it/schede/parr040.htm;10.0;23.0;ISSOGLIO don Aldo;Chiesa Cattolica;;40.0;6000.0;Unita' Pastorale N.23 - Sassi;POINT (7.713863714871247 45.0669258119601);45.066925811960104;7.7138637148712474;21;Madonna del Pilone;Aurora, Vanchiglia - Sassi - Madonna del Pilone
119;2;NON PARROCCHIALE;Gesu' (Chiesa del);VIA LOMELLINA 44;TORINO;10132;7;011/8998810;;;;;;;Chiesa Cattolica;"Fest.18.15; Prefest.18.15";;;;POINT (7.722860649145142 45.0681088087094);45.068108808709404;7.722860649145142;21;Madonna del Pilone;Aurora, Vanchiglia - Sassi - Madonna del Pilone
173;2;NON PARROCCHIALE;SS. Redentore;STRADA VAL S. MARTINO 7;TORINO;10131;7;;;;;;;;;;;;;POINT (7.71320281284931 45.06409755147816);45.064097551478156;7.71320281284931;21;Madonna del Pilone;Aurora, Vanchiglia - Sassi - Madonna del Pilone
175;2;NON PARROCCHIALE;Basilica di Superga - Nativita' di Maria Vergine;STRADA DELLA BASILICA DI SOPERGA 73;TORINO;10132;7;011/8980083;;;;;;;Chiesa Cattolica;"Fest.10-11-12-17 (ora sol.) - 18 (ora leg.); Prefest.17 (ora sol.) - 18 (ora leg.)";;;;POINT (7.76781873307657 45.08058786821524);45.08058786821524;7.76781873307657;21;Madonna del Pilone;Aurora, Vanchiglia - Sassi - Madonna del Pilone
84;1;PARROCCHIALE;S. Monica;VIA VADO 9;TORINO;10126;8;011 6636714;;parr.s.monica@diocesi.torino.it;http://www.diocesi.torino.it/parr087;9.0;21.0;D'ARIA don Daniele;Chiesa Cattolica;;87.0;5300.0;Unita' Pastorale N.21 - Lingotto;POINT (7.667775920440378 45.03062334943834);45.030623349438336;7.667775920440378;9;Nizza mille fonti;San Salvario - Cavoretto - Borgo Po - Nizza Millefonti - Lingotto - Filadelfia
42;1;PARROCCHIALE;Patrocinio di S. Giuseppe;VIA PIETRO BAIARDI 8;TORINO;10126;8;011 6960422;;parr.patrocinio@diocesi.torino.it;http://www4.diocesi.torino.it/schede/parr042.htm;9.0;21.0;D'ARIA don Daniele;Chiesa Cattolica;;42.0;11000.0;Unita' Pastorale N.21 - Lingotto;POINT (7.669529528240339 45.03513389577703);45.03513389577703;7.669529528240339;9;Nizza mille fonti;San Salvario - Cavoretto - Borgo Po - Nizza Millefonti - Lingotto - Filadelfia
2;1;PARROCCHIALE;Assunzione di Maria Vergine - Lingotto;VIA NIZZA 355;TORINO;10127;8;011 6965802;011 6315049;parr.lingotto@torino.chiesacattolica.it;http://www4.diocesi.torino.it/schede/parr003.htm;9.0;21.0;COHA don Giuseppe;Chiesa Cattolica;;3.0;13200.0;Unita' Pastorale N.21 - Lingotto;POINT (7.663916584910256 45.02260739905431);45.02260739905431;7.663916584910256;9;Nizza mille fonti;San Salvario - Cavoretto - Borgo Po - Nizza Millefonti - Lingotto - Filadelfia
159;2;NON PARROCCHIALE;S. Michele Arcangelo;VIA GENOVA 8 bis/A;TORINO;10126;8;011/6964160;;;;;;;Chiesa Cattolica;Fest. 9-11-17 (escl. lug-ago);;;;POINT (7.672215601291614 45.04084547413577);45.04084547413577;7.672215601291614;9;Nizza mille fonti;San Salvario - Cavoretto - Borgo Po - Nizza Millefonti - Lingotto - Filadelfia
302;2;NON PARROCCHIALE;Nativita' di Maria SS.;VIA SPOTORNO 43;TORINO;10126;8;0116964150;;;;;;;Chiesa Cattolica;;;;;POINT (7.667678552818146 45.03107845563812);45.03107845563812;7.667678552818146;9;Nizza mille fonti;San Salvario - Cavoretto - Borgo Po - Nizza Millefonti - Lingotto - Filadelfia
98;1;PARROCCHIALE;Sacro Cuore di Maria;VIA FEDERICO CAMPANA 8;TORINO;10125;8;011 6699083;011 6682225;parr.sacro.cuore.maria@diocesi.torino.it;http://www4.diocesi.torino.it/schede/parr045.htm;2.0;4.0;TEFNIN don Jean Marcel;Chiesa Cattolica;;45.0;600.0;Unita' Pastorale N.04 - Sacro Cuore;POINT (7.678181090702435 45.05498606957347);45.054986069573474;7.678181090702435;2;San Salvario;San Salvario - Cavoretto - Borgo Po - Nizza Millefonti - Lingotto - Filadelfia
120;2;NON PARROCCHIALE;Immacolata;VIA MADAMA CRISTINA 134;TORINO;10126;8;;;;;;;;Chiesa Cattolica;Fest.10.30 (escl.lug-ago);;;;POINT (7.672897954495428 45.04364485078737);45.043644850787366;7.672897954495428;2;San Salvario;San Salvario - Cavoretto - Borgo Po - Nizza Millefonti - Lingotto - Filadelfia
129;2;NON PARROCCHIALE;Maria Consolatrice;VIA ILARIONE PETITTI 24/C;TORINO;10126;8;;;;;;;;Chiesa Cattolica;;;;;POINT (7.674341808742765 45.04610815902144);45.046108159021436;7.674341808742765;2;San Salvario;San Salvario - Cavoretto - Borgo Po - Nizza Millefonti - Lingotto - Filadelfia
152;2;NON PARROCCHIALE;S. Giovanni Evangelista;CORSO VITTORIO EMANUELE II 13;TORINO;10125;8;011/6590511;;;;;;;Chiesa Cattolica;"Fest. 8-10-11-12 (in lingua filippina) -18; Prefest. 18";;;;POINT (7.685418556425978 45.06006124635648);45.06006124635648;7.6854185564259785;2;San Salvario;San Salvario - Cavoretto - Borgo Po - Nizza Millefonti - Lingotto - Filadelfia
97;1;PARROCCHIALE;Sacro Cuore di Gesu';VIA NIZZA 56;TORINO;10126;8;011 6698650;011 6687979;sacrocuoreparrocchia@libero.it;http://www4.diocesi.torino.it/schede/parr044.htm;2.0;4.0;FANTIN don Luciano;Chiesa Cattolica;;44.0;24000.0;Unita' Pastorale N.04 - Sacro Cuore;POINT (7.673725278677276 45.04935368364517);45.049353683645165;7.673725278677276;2;San Salvario;San Salvario - Cavoretto - Borgo Po - Nizza Millefonti - Lingotto - Filadelfia
102;1;PARROCCHIALE;Santi Pietro e Paolo Apostoli;VIA SALUZZO 25 bis;TORINO;10125;8;011 6505176;011 6693085;parr.pietroepaolo@yahoo.it;http://www4.diocesi.torino.it/schede/parr103.htm;2.0;4.0;MERGOLA don Mauro S.D.B.;Chiesa Cattolica;;103.0;14000.0;Unita' Pastorale N.04 - Sacro Cuore;POINT (7.678698606393292 45.05795897469685);45.05795897469685;7.678698606393292;2;San Salvario;San Salvario - Cavoretto - Borgo Po - Nizza Millefonti - Lingotto - Filadelfia
121;2;NON PARROCCHIALE;Immacolata Concezione;VIA NIZZA 47;TORINO;10125;8;011/6505551;;;;;;;Chiesa Cattolica;Fest.10.30 (escl.lug-ago);;;;POINT (7.676066862072036 45.05446188681226);45.054461886812255;7.6760668620720365;2;San Salvario;San Salvario - Cavoretto - Borgo Po - Nizza Millefonti - Lingotto - Filadelfia
105;1;PARROCCHIALE;Santi Apostoli;VIA PALMIRO TOGLIATTI 35;TORINO;10135;2;011 346181;;parr.santi.apostoli@diocesi.torino.it - ufficio@santiapostoli.it;http://www.santiapostoli.org;9.0;20.0;SUARDI don Gianmarco;Chiesa Cattolica;;101.0;9500.0;Unita' Pastorale N.20 - Mirafiori sud;POINT (7.633340587296348 45.01611263308301);45.01611263308301;7.633340587296348;23;Mirafiori Sud;Santa Rita - Mirafiori
111;1;PARROCCHIALE;Visitazione di Maria Vergine e S. Barnaba;STRADA CASTELLO DI MIRAFIORI 42;TORINO;10135;2;011 341177;011 343234;parr.visitazione.maria@diocesi.torino.it;http://www4.diocesi.torino.it/schede/parr110.htm;9.0;20.0;SUARDI don Gianmarco;Chiesa Cattolica;;110.0;3430.0;Unita' Pastorale N.20 - Mirafiori sud;POINT (7.627975848858473 45.0120155953997);45.0120155953997;7.6279758488584735;23;Mirafiori Sud;Santa Rita - Mirafiori
124;2;NON PARROCCHIALE;Madonna di Loreto (succ. Parrocchia S.Remigio);VIA LUIGI CHIALA 14;TORINO;10127;2;011/6060422;;;;;;;Chiesa Cattolica;"Fest.9; Prefest.18";;;;POINT (7.653320094696435 45.0162076226927);45.0162076226927;7.653320094696435;23;Mirafiori Sud;Santa Rita - Mirafiori
131;2;NON PARROCCHIALE;Maria Madre della Speranza - Cimitero Sud;VIA AGOSTINO BERTANI 80;TORINO;10137;2;011/3113411;;;;;;;Chiesa Cattolica;Fest.9.30-11;;;;POINT (7.603470155710667 45.03225677883275);45.03225677883275;7.603470155710667;23;Mirafiori Sud;Santa Rita - Mirafiori
90;1;PARROCCHIALE;S. Remigio Vescovo;VIA DOMENICO MILLELIRE 51;TORINO;10127;2;011 6053694;;;http://www4.diocesi.torino.it/schede/parr093.htm;9.0;20.0;PERLO don Bartolo;Chiesa Cattolica;;93.0;9080.0;Unita' Pastorale N.20 - Mirafiori sud;POINT (7.650708521751969 45.01281179339992);45.01281179339992;7.650708521751969;23;Mirafiori Sud;Santa Rita - Mirafiori
5;1;PARROCCHIALE;Beati Parroci Federico Albert e Clemente Marchisio;VIA MONTE CENGIO 8;TORINO;10135;2;011 3978477;011 3471263;beati.parroci@virgilio.it;http://www4.diocesi.torino.it/schede/parr006.htm;9.0;20.0;FASSIO don Corrado;Chiesa Cattolica;;6.0;7500.0;Unita' Pastorale N.20 - Mirafiori sud;POINT (7.624575348058661 45.01856691204846);45.018566912048456;7.624575348058661;23;Mirafiori Sud;Santa Rita - Mirafiori
77;1;PARROCCHIALE;S. Luca Evangelista;VIA CELESTE NEGARVILLE 14;TORINO;10135;2;011 3471300;011 3283490;parrocchiasanluca@davide.it;http://www.parrocchiasanluca.net ;9.0;20.0;NOTA don Giuseppe;Chiesa Cattolica;;80.0;7000.0;Unita' Pastorale N.20 - Mirafiori sud;POINT (7.612105531094576 45.02024608280095);45.02024608280095;7.612105531094576;23;Mirafiori Sud;Santa Rita - Mirafiori
140;2;NON PARROCCHIALE;S. Andrea Apostolo;VIA TORRAZZA PIEMONTE 25;TORINO;10127;2;011/6053672;;;;;;;Chiesa Cattolica;Fest.10.30(escl. ago.);;;;POINT (7.657726570404393 45.01686770354357);45.016867703543575;7.657726570404393;23;Mirafiori Sud;Santa Rita - Mirafiori
118;2;NON PARROCCHIALE;Gesu'  Cristo Re;LUNGO DORA NAPOLI 76;TORINO;10152;7;011/852401;;;;;;;Chiesa Cattolica;"Fest.9-16.30 (ora sol.) -17 (ora leg. escl. lug-set); Prefest.16.30(ora sol.) -17 (ora leg. escl. lug-set)";;;;POINT (7.678189604085915 45.08704258161863);45.08704258161863;7.678189604085915;7;Aurora;Aurora, Vanchiglia - Sassi - Madonna del Pilone
126;2;NON PARROCCHIALE;Basilica Maria SS. Ausiliatrice - Santuario;VIA MARIA AUSILIATRICE 32;TORINO;10152;7;011/52241;;;;;;;Chiesa Cattolica;"Fest.6-7-8-9-10-11-12-17.30-18.30-21; Prefest.18";;;;POINT (7.676045299897791 45.08077130561737);45.08077130561737;7.676045299897791;7;Aurora;Aurora, Vanchiglia - Sassi - Madonna del Pilone
167;2;NON PARROCCHIALE;Cottolengo - S. Vincenzo De Paoli e S. Antonio Abate;VIA S. PIETRO IN VINCOLI 12;TORINO;10152;7;011/5225111;;;;;;;Chiesa Cattolica;Fest.10-17;;;;POINT (7.680782785897577 45.080882626676);45.080882626676;7.680782785897577;7;Aurora;Aurora, Vanchiglia - Sassi - Madonna del Pilone
62;1;PARROCCHIALE;S. Gioacchino;VIA VITTORIO AMEDEO CIGNAROLI 3;TORINO;10152;7;011 4365831;011 4362797;parr.s.gioacchino@diocesi.torino.it;http://www.diocesi.torino.it/parr066;7.0;14.0;OKON padre Benjamin;Chiesa Cattolica;;66.0;14000.0;Unita' Pastorale N.14 - Barriera di Milano;POINT (7.686268482873357 45.07932807815795);45.07932807815795;7.6862684828733565;7;Aurora;Aurora, Vanchiglia - Sassi - Madonna del Pilone
10;1;PARROCCHIALE;Gesu' Crocifisso e Madonna delle Lacrime;VIA GIAVENO 39;TORINO;10152;7;011 238332;;;http://www4.diocesi.torino.it/schede/parr010.htm;7.0;14.0;CHEULA don Stefano;Chiesa Cattolica;;10.0;7925.0;Unita' Pastorale N.14 - Barriera di Milano;POINT (7.680678142033641 45.08926657598582);45.089266575985825;7.680678142033641;7;Aurora;Aurora, Vanchiglia - Sassi - Madonna del Pilone
31;1;PARROCCHIALE;Maria Ausiliatrice;PIAZZA MARIA AUSILIATRICE 9;TORINO;10152;7;011 5224650;011 5224690;;http://www4.diocesi.torino.it/schede/parr031.htm;7.0;1.0;DURANDO don Claudio S.D.B.;Chiesa Cattolica;;31.0;11250.0;Unita' Pastorale N.01 - Cattedrale;POINT (7.675920840206842 45.08048082870123);45.080480828701226;7.675920840206842;7;Aurora;Aurora, Vanchiglia - Sassi - Madonna del Pilone
