ID_PT_INGR;DENOMINAZ;CITTA;INDIRIZZO;CIRCOSCR;CAP;TEL;FAX;EMAIL;URL;ORDINE;TIPOLOGIA;DETTAGLIO;STATALE;PARITARIA;COMUNALE;TIPO_SCUOL;COMPRENS;QUARTIERE;geometry;LATITUDE;LONGITUDE
86;VALLETTE A;TORINO;VIA DELLE VERBENE 6;5;10151;011 731658;011 4553876;smmverbene@comune.torino.it;;SCUOLA D'INFANZIA;;;non statale;paritaria;comunale;Sede di plesso;;;POINT (7.633420387106289 45.10436006277746);45.10436006277746;7.633420387106289
87;GINO SEGRE';TORINO;CORSO ALBERTO PICCO 14;8;10131;011 8194533;011 8196931;segreteria@liceoginosegre.it;http://www.liceoginosegre.it;SCUOLA SEC. II GRADO;LICEO;LICEO SCIENTIFICO;statale;;;Sede centrale;"Istituto d'istruzione Secondaria Superiore - ""Gino Segre'""";;POINT (7.706774109138688 45.05976316858052);45.05976316858052;7.706774109138688
88;C. CAVOUR;TORINO;CORSO ALESSANDRO TASSONI 15;4;10143;011 7495272;011 7764753;amministrazione@lcavour.it;http://www.lcavour.it;SCUOLA SEC. II GRADO;LICEO;LICEO CLASSICO;statale;;;Sede centrale;"Istituto d'istruzione Secondaria Superiore - Liceo ""Cavour""";;POINT (7.655880875789927 45.0777341512035);45.0777341512035;7.655880875789927
89;PIERO CALAMANDREI;TORINO;CORSO BENEDETTO CROCE 17;8;10135;011 613647;011 6197336;segreteria@scuolacalamandrei.org;http://www.scuolacalamandrei.org;SCUOLA SEC. I GRADO;;;statale;;;Sede centrale;"Istituto Secondario I grado - ""Piero Calamandrei""";;POINT (7.645794583022226 45.02103128971677);45.02103128971677;7.6457945830222265
90;SCUOLA D'INFANZIA;TORINO;CORSO BENEDETTO CROCE 21;8;10135;011 614251;011 614251;smmcroce@comune.torino.it;http://maternaguala.scuole.piemonte.it;SCUOLA D'INFANZIA;;;non statale;paritaria;comunale;Sede di plesso;;;POINT (7.645563364090776 45.02066983698021);45.02066983698021;7.645563364090776
91;COLLODI;TORINO;CORSO BENEDETTO CROCE 26;8;10135;011 3160206;011 3170423;colloroda@libero.it;http://www.scuolaelementarecolloditorino.it;SCUOLA PRIMARIA;;;statale;;;Sede di Plesso;"Il Circolo Didattico ""Carlo Collodi""";;POINT (7.644737647492241 45.0204686784914);45.020468678491405;7.644737647492241
92;G. GALILEI;TORINO;CORSO CADUTI SUL LAVORO 11;8;10126;011 6672022;011 6641183;galilei.to@tiscali.it;http://www.galileitorino.it;SCUOLA SEC. II GRADO;I.P. SETT. INDUSTRIA E ARTIGIANATO;I.P. INDUSTRIA E ARTIG.;statale;;;Aule staccate;"Istituto d'istruzione Secondaria Superiore - ""Galilei""";;POINT (7.66761428936308 45.0266737269128);45.0266737269128;7.66761428936308
93;REGINA MARGHERITA;TORINO;CORSO CADUTI SUL LAVORO 11;8;10126;011 6645488;011 6595862;topm050003@istruzione.it;http://www.istitutoreginamargherita.it;SCUOLA SEC. II GRADO;LICEO;LICEO SCIENZE UMANE - EX IST. E SC. MAGISTR;statale;;;Succursale;"Istituto d'istruzione Secondaria Superiore - ""Regina Margherita""";;POINT (7.66761428936308 45.0266737269128);45.0266737269128;7.66761428936308
94;MILLEFONTI;TORINO;CORSO CADUTI SUL LAVORO 5;8;10126;011 6633896;011 6633896;smmcadutisullavoro@comune.torino.it;;SCUOLA D'INFANZIA;;;non statale;paritaria;comunale;Sede di plesso;;;POINT (7.666750835360619 45.02693668580459);45.02693668580459;7.666750835360619
95;COPERNICO;TORINO;CORSO CAIO PLINIO 2;8;10127;011 616197;011 3172352;lsscopernico@virgilio.it;http://www.copernico.to.it;SCUOLA SEC. II GRADO;LICEO;LICEO SCIENTIFICO;statale;;;Sede centrale;"Istituto d'istruzione Secondaria Superiore - ""Copernico""";;POINT (7.65507200374905 45.02701453430664);45.027014534306645;7.65507200374905
96;ROSA LUXEMBURG;TORINO;CORSO CAIO PLINIO 6;8;10127;011 6192212 - 011 6193021;011 610245;rosa@luxemburg.it;http://www.luxemburg.it;SCUOLA SEC. II GRADO;I.T. SETT ECONOMICO;I.T. PERITI AZIENDALI;statale;;;Scuola coordinata;"Istituto d'istruzione Secondaria Superiore - ""Rosa Luxemburg""";;POINT (7.655312670353903 45.02599208324773);45.02599208324773;7.655312670353903
97;ROSA LUXEMBURG;TORINO;CORSO CAIO PLINIO 6;8;10127;011 6192212 - 011 6193021;011 610245;rosa@luxemburg.it;http://www.luxemburg.it;SCUOLA SEC. II GRADO;I.T. SETT ECONOMICO;I.T. COMMERCIALE;statale;;;Sede centrale;"Istituto d'istruzione Secondaria Superiore - ""Rosa Luxemburg""";;POINT (7.655312670353903 45.02599208324773);45.02599208324773;7.655312670353903
98;MAFALDA DI SAVOIA;TORINO;CORSO CASALE 246;7;10132;011 8994319;011 8992732;smmcasale@comune.torino.it;;SCUOLA D'INFANZIA;;;non statale;paritaria;comunale;Sede di plesso;;;POINT (7.7291931490698 45.07284841604904);45.07284841604904;7.7291931490698005
99;JEAN GIONO;TORINO;CORSO CASALE 324;7;10132;011 6602955;011 6600036;secretariat@lyceefrancaisgionoturin.it;http://www.lyceegionoturin.it;SCUOLA SEC. I GRADO;;;non statale;non paritaria;;Sede centrale;Lycèe Francais Jean giono;;POINT (7.731113131953389 45.08062125474691);45.08062125474691;7.731113131953389
100;JEAN GIONO;TORINO;CORSO CASALE 324;7;10132;011 6602955;011 6600036;secretariat@lyceefrancaisgionoturin.it;http://www.lyceegionoturin.it;SCUOLA SEC. II GRADO;;SCUOLA FRANCESE;non statale;non paritaria;;Sede centrale;Lycèe Francais Jean giono;;POINT (7.731113131953389 45.08062125474691);45.08062125474691;7.731113131953389
101;JEAN GIONO;TORINO;CORSO CASALE 324;7;10132;011 6602955;011 6600036;secretariat@lyceefrancaisgionoturin.it;http://www.lyceegionoturin.it;SCUOLA PRIMARIA;;;non statale;non paritaria;;Sede di Plesso;Lycèe Francais Jean giono;;POINT (7.731113131953389 45.08062125474691);45.08062125474691;7.731113131953389
102;JEAN GIONO;TORINO;CORSO CASALE 324;7;10132;011 6602955;011 6600036;secretariat@lyceefrancaisgionoturin.it;http://www.lyceegionoturin.it;SCUOLA D'INFANZIA;;;non statale;non paritaria;;Sede di plesso;Lycèe Francais Jean giono;;POINT (7.731113131953389 45.08062125474691);45.08062125474691;7.731113131953389
103;REAGLIE;TORINO;CORSO CHIERI 136;7;10132;011 8980284;011 8980284;toic81800l@istruzione.it;http://www.gozzi-olivetti.org;SCUOLA PRIMARIA;;;statale;;;Sede di Plesso;"Istituto Comprensivo - ""Gozzi Olivetti""";;POINT (7.740766051689143 45.06025850127302);45.06025850127302;7.7407660516891434
104;SCUOLA D'INFANZIA;TORINO;CORSO CIRIE' 3;7;10152;011 4363245;011 2472125;segreteria@elementarelessona.it;;SCUOLA D'INFANZIA;;;statale;;;Sede di plesso;"Istituto Comprensivo - ""Lessona""";;POINT (7.674593329069459 45.08438542650527);45.08438542650527;7.674593329069459
105;LUIGI CASALE;TORINO;CORSO CIRIE' 7;7;10152;011 4362877;011 4366520;itis.casale@libero.it;http://www.itiscasale.it;SCUOLA SEC. II GRADO;I.T. SETT TECNOLOGICO;I.T. INDUSTRIALE;statale;;;Succursale;"Istituto Tecnico Industriale ""Luigi Casale""";;POINT (7.675363512145928 45.08418913781871);45.08418913781871;7.675363512145928
106;VITTORIO ALFIERI;TORINO;CORSO DANTE 80;8;10126;011 6631941;011 6634042;segreteria@liceoalfieri.it;http://www.liceoalfieri.it;SCUOLA SEC. II GRADO;LICEO;LICEO CLASSICO;statale;;;Sede centrale;"Istituto d'istruzione Secondaria Superiore - ""Vittorio Alfieri""";;POINT (7.677644846294354 45.0464415070594);45.0464415070594;7.677644846294354
107;G. SOMMEILLER;TORINO;CORSO DUCA DEGLI ABRUZZI 20;1;10129;011 5178054;011 5613193;itcs@sommeiller.it;http://www.sommeiller.it;SCUOLA SEC. II GRADO;I.T. SETT ECONOMICO;I.T. COMMERCIALE;statale;;;Sede centrale;"Istituto d'istruzione Secondaria Superiore - ""Germano Sommeiller""";;POINT (7.663187133681603 45.06367232327959);45.06367232327959;7.663187133681603
108;BORGO CROCETTA;TORINO;CORSO DUCA DEGLI ABRUZZI 50;1;10129;011 596070 - 011 5684032;011 596013;smmducadegliabruzzi@comune.torino.it;;SCUOLA D'INFANZIA;;;non statale;paritaria;comunale;Sede di plesso;;;POINT (7.659717703851363 45.05869282697472);45.05869282697472;7.659717703851363
109;MAJORANA;TORINO;CORSO ENRICO TAZZOLI 209;2;10137;011 3114113;011 3099647;segreteria@majoranatorino.it;http://www.majoranatorino.it;SCUOLA SEC. II GRADO;I.T. SETT ECONOMICO;I.T. COMMERCIALE;statale;;;Sezione staccata;"Istituto d'istruzione Secondaria Superiore - ""Ettore Majorana""";;POINT (7.61983871585323 45.03640829861964);45.03640829861964;7.61983871585323
110;MAJORANA;TORINO;CORSO ENRICO TAZZOLI 209;2;10137;011 3114113;011 3099647;segreteria@majoranatorino.it;http://www.majoranatorino.it;SCUOLA SEC. II GRADO;I.T. SETT ECONOMICO;I.T. PERITI AZIENDALI;statale;;;Scuola coordinata;"Istituto d'istruzione Secondaria Superiore - ""Ettore Majorana""";;POINT (7.61983871585323 45.03640829861964);45.03640829861964;7.61983871585323
111;DUCHESSA ELENA D'AOSTA;TORINO;CORSO FRANCIA 139;3;10138;011 740281;011 7778285;scuola_elena@tiscali.it;;SCUOLA D'INFANZIA;;;non statale;paritaria;convenzionata;Sede di plesso;;;POINT (7.646356372632159 45.07539959192559);45.07539959192559;7.646356372632159
112;M. L. KING 3;TORINO;CORSO FRANCIA 377;3;10142;011 4038658;011 4033698;scuolamlk@virgilio.it;http://www.icking-to.it;SCUOLA PRIMARIA;;;statale;;;Aule staccate;"Istituto Comprensivo - ""M.L. King""";;POINT (7.609496115299164 45.07389208435257);45.07389208435257;7.609496115299164
113;NUOVO MONDO;TORINO;CORSO GIACOMO MATTEOTTI 23;1;10121;011 547997;011 547997;scuolanuovomondo@libero.it;;SCUOLA D'INFANZIA;;;non statale;non paritaria;;Sede di plesso;;;POINT (7.672907867164433 45.06670321389139);45.066703213891394;7.672907867164433
114;UMBERTO I;TORINO;CORSO GIACOMO MATTEOTTI 48;1;10121;011 544532;011 544532;umbertoprimoto@libero.it;;SCUOLA D'INFANZIA;;;non statale;paritaria;convenzionata;Sede di plesso;;;POINT (7.665813131684287 45.06968270753088);45.06968270753088;7.665813131684287
115;DI CORSO MATTEOTTI;TORINO;CORSO GIACOMO MATTEOTTI 6 bis;1;10121;011 535809;011 530212;pacchiotti@tin.it;http://www.direzionedidatticapacchiotti.it;SCUOLA D'INFANZIA;;;statale;;;Sede di plesso;"Direzione Didattica - ""G. Pacchiotti""";;POINT (7.677258490918171 45.06560652736799);45.06560652736799;7.677258490918171
116;CARDUCCI;TORINO;CORSO GIACOMO MATTEOTTI 6 bis;1;10121;011 545656;011 530212;pacchiotti@tin.it;http://www.direzionedidatticapacchiotti.it;SCUOLA PRIMARIA;;;statale;;;Sede di Plesso;"Direzione Didattica - ""G. Pacchiotti""";;POINT (7.677258490918171 45.06560652736799);45.06560652736799;7.677258490918171
117;SUCC. ANTONIO MEUCCI;TORINO;CORSO GIACOMO MATTEOTTI 6 bis;1;10121;011 543679;011 543679;scuola.meucci@libero.it;http://www.scuolamediameucci.it;SCUOLA SEC. I GRADO;;;statale;;;Succursale;"Istituto Secondario I grado - ""Antonio Meucci""";;POINT (7.677258490918171 45.06560652736799);45.06560652736799;7.677258490918171
118;ANTONIO MEUCCI;TORINO;CORSO GIACOMO MATTEOTTI 9;1;10121;011 545782;011 5627851;scuola.meucci@libero.it;http://www.scuolamediameucci.it;SCUOLA SEC. I GRADO;;;statale;;;Succursale;"Istituto Secondario I grado - ""Antonio Meucci""";;POINT (7.676735319404468 45.06554907376395);45.065549073763954;7.676735319404468
119;G. PARINI;TORINO;CORSO GIULIO CESARE 26;7;10152;011 852430;011 852430;TOEE05000E@istruzione.it;http://www.scuolaparini.it;SCUOLA PRIMARIA;;;statale;;;Sede di Plesso;"Circolo Didattico - ""Giuseppe Parini""";;POINT (7.687980904391519 45.08304583116644);45.083045831166444;7.687980904391519
120;LOMBARDO RADICE;TORINO;CORSO GROSSETO 112;5;10148;011 2201180;011 290914;segreteria@scuolasaba.it;http://www.scuolasaba.it;SCUOLA PRIMARIA;;;statale;;;Sede di Plesso;"Istituto Comprensivo - ""Umberto Saba""";;POINT (7.677647738591615 45.10476139403447);45.10476139403447;7.677647738591615
121;RAYNERI;TORINO;CORSO GUGLIELMO MARCONI 28;8;10125;011 6699446;011 6690069;TOIC81900C@istruzione.it;http://www.icmanzoni.org;SCUOLA PRIMARIA;;;statale;;;Sede di Plesso;"Istituto Comprensivo - ""Manzoni""";;POINT (7.681560072751473 45.05547685721942);45.05547685721942;7.681560072751473
122;E 15;TORINO;CORSO L. QUINZIO CINCINNATO 121;5;10151;011 7390649;011 7393668;TOIC873005@istruzione.it;http://www.padregemelli.it;SCUOLA D'INFANZIA;;;statale;;;Sede di plesso;"Istituto Comprensivo - ""Padre Gemelli""";;POINT (7.639921048137359 45.09811760857639);45.09811760857639;7.639921048137359
123;CINCINNATO 200;TORINO;CORSO L. QUINZIO CINCINNATO 200;5;10151;011 7399848;011 7381382;smmcincinnato@comune.torino.it;;SCUOLA D'INFANZIA;;;non statale;paritaria;comunale;Sede di plesso;;;POINT (7.649168486408439 45.10221019406237);45.102210194062366;7.649168486408439
124;PADRE AGOSTINO GEMELLI;TORINO;CORSO LOMBARDIA 98;5;10151;011 731758;011 4557273;TOIC873005@istruzione.it;http://www.padregemelli.it;SCUOLA PRIMARIA;;;statale;;;Sede di Plesso;"Istituto Comprensivo - ""Padre Gemelli""";;POINT (7.647332037382397 45.09606634901183);45.09606634901183;7.647332037382397
125;RICCARDO  DAL  PIAZ;TORINO;CORSO LUIGI D'ALBERTIS 22;3;10141;011 331890;011 3859566;postmaster@scuolatoscanini.it;http://www.circolotoscanini.it/;SCUOLA PRIMARIA;;;statale;;;Sede di Plesso;"Circolo Didattico - ""A. Toscanini""";;POINT (7.630815192510727 45.06068367776513);45.06068367776513;7.6308151925107275
126;TEATRO NUOVO;TORINO;CORSO MASSIMO D'AZEGLIO 17;8;10126;011 6500262;011 6500218;liceotnt@tin.it;http://www.liceoteatronuovo.com;SCUOLA SEC. II GRADO;LICEO;LICEO MUSICALE E COREUTICO;non statale;paritaria;;Scuola coordinata;"Liceo d'Arte e Spettacolo ""Teatro Nuovo Torino""";;POINT (7.680871524051829 45.04836891223376);45.04836891223376;7.680871524051829
127;TEATRO NUOVO;TORINO;CORSO MASSIMO D'AZEGLIO 17;8;10126;011 6500262;011 6500218;liceotnt@tin.it;http://www.liceoteatronuovo.com;SCUOLA SEC. II GRADO;LICEO;LICEO ARTISTICO;non statale;paritaria;;Sede centrale;"Liceo d'Arte e Spettacolo ""Teatro Nuovo Torino""";;POINT (7.680871524051829 45.04836891223376);45.04836891223376;7.680871524051829
128;RUSSELL - MORO;TORINO;CORSO MOLISE 58;5;10151;011 733160 - 011 7390665;011 4559041;TOTD290002@istruzione.it;http://www.russell-moro.it;SCUOLA SEC. II GRADO;I.T. SETT ECONOMICO;I.T. PERITI AZIENDALI;statale;;;Scuola coordinata;"Istituto d'istruzione Secondaria Superiore - ""Russell - Moro""";;POINT (7.638569254273328 45.10388563704957);45.103885637049565;7.638569254273328
129;RUSSELL - MORO;TORINO;CORSO MOLISE 58;5;10151;011 733160;011 4559041;TOTD290002@istruzione.it;http://www.russell-moro.it;SCUOLA SEC. II GRADO;I.T. SETT ECONOMICO;I.T. COMMERCIALE;statale;;;Sede centrale;"Istituto d'istruzione Secondaria Superiore - ""Russell - Moro""";;POINT (7.638569254273328 45.10388563704957);45.103885637049565;7.638569254273328
130;BORGNANA PICCO;TORINO;CORSO MONCALIERI 218;8;10133;011 6613070;011 6613070;info@borgnanapicco.it;http://www.borgnanapicco.it;SCUOLA D'INFANZIA;;;non statale;paritaria;convenzionata;Sede di plesso;;;POINT (7.68271386572757 45.04041333233788);45.04041333233788;7.68271386572757
131;FIOCCARDO;TORINO;CORSO MONCALIERI 400;8;10133;011 6610961;011 6610961;toee05100a@istruzione.it;http://pellico.scuole.piemonte.it;SCUOLA D'INFANZIA;;;statale;;;Sede di plesso;"Circolo Didattico - ""Pellico""";;POINT (7.675816911533802 45.02509131256306);45.025091312563056;7.675816911533802
132;FIOCCARDO;TORINO;CORSO MONCALIERI 400;8;10133;011 6611033;011 6611180;toee05100a@istruzione.it;http://pellico.scuole.piemonte.it;SCUOLA PRIMARIA;;;statale;;;Sede di Plesso;"Circolo Didattico - ""Pellico""";;POINT (7.675816911533802 45.02509131256306);45.025091312563056;7.675816911533802
133;M. L. RUBATTO;TORINO;CORSO MONCALIERI 48;8;10133;011 6601830;011 6606157;smmmoncalieri48@comune.torino.it;;SCUOLA D'INFANZIA;;;non statale;paritaria;comunale;Sede di plesso;;;POINT (7.692139089837762 45.05623259757705);45.05623259757705;7.692139089837762
134;S. DENIS;TORINO;CORSO MONCALIERI 52;8;10133;011 6602234;011 6606249;tizianapirero@libero.it;;SCUOLA PRIMARIA;;;non statale;non paritaria;;Sede di Plesso;;;POINT (7.691925228745143 45.05583689132239);45.055836891322386;7.691925228745143
135;NEIL ARMSTRONG;TORINO;CORSO MONTE GRAPPA 81;4;10146;011 7497784;011 724696;segreteria@ddducadaosta.it;;SCUOLA PRIMARIA;;;statale;;;Sede di Plesso;"Direzione didattica - ""Duca d'Aosta""";;POINT (7.638624081671003 45.08302596025933);45.083025960259334;7.638624081671003
136;GALILEO FERRARIS;TORINO;CORSO RODOLFO MONTEVECCHIO 67;1;10129;011 5628394;011 539589;segreteria@liceogalfer.it;http://share.dschola.it/galileoferraris/;SCUOLA SEC. II GRADO;LICEO;LICEO SCIENTIFICO;statale;;;Sede centrale;"Istituto d'istruzione Secondaria Superiore - ""Galieleo Ferraris""";;POINT (7.662554782702142 45.06434568492153);45.06434568492153;7.662554782702142
137;CROCE;TORINO;CORSO NOVARA 26;7;10152;011 2481916;011 2472064;croce.morelli@libero.it;;SCUOLA SEC. I GRADO;;;statale;;;Sede centrale;"Istituto Secondario I grado ""Croce-Morelli""";;POINT (7.691771880111911 45.08701933060967);45.08701933060967;7.6917718801119115
138;BIRAGO;TORINO;CORSO NOVARA 65;6;10154;011 2482089;011 857169;birago@ipsiabirago.it;http://www.ipsiabirago.it;SCUOLA SEC. II GRADO;I.P. SETT. INDUSTRIA E ARTIGIANATO;I.P. INDUSTRIA E ARTIG.;statale;;;Sede centrale;"Istituto professionale di Stato ""Birago""";;POINT (7.697159522162647 45.08399741072094);45.08399741072094;7.697159522162647
139;COLLODI;TORINO;CORSO ORBASSANO 122;2;10136;011 3241078;01 /3092489;smmorbassano@comune.torino.it;;SCUOLA D'INFANZIA;;;non statale;paritaria;comunale;Sede di plesso;;;POINT (7.648218648493979 45.04787325406691);45.047873254066914;7.648218648493979
140;GIUSEPPE MAZZINI;TORINO;CORSO ORBASSANO 155/A;2;10136;011 390778 - 011 392824 - 011 3272097;011 390778 - 011 392;ddmazzinisegreteria@ddmazzinitorino.it;http://www.ddmazzinitorino.it;SCUOLA PRIMARIA;;;statale;;;Sede di Plesso;"Circolo Didattico ""G. Mazzini""";;POINT (7.645185929491292 45.0456730094159);45.0456730094159;7.6451859294912925
141;NICHOLAS GREEN;TORINO;CORSO ORBASSANO 224 int. 26;2;10137;011 364443;011 390778 - 011 392;ddmazzinisegreteria@ddmazzinitorino.it;http://www.ddmazzinitorino.it;SCUOLA D'INFANZIA;;;statale;;;Sede di plesso;"Circolo Didattico ""G. Mazzini""";;POINT (7.634728378581887 45.04211889449303);45.04211889449303;7.634728378581887
142;SANTORRE DI SANTAROSA;TORINO;CORSO PESCHIERA 230;3;10139;011 3858544;011 336526;santorre@santorre.it;http://www.santorre.it;SCUOLA SEC. II GRADO;I.T. SETT TECN - ECONOMICO;I.T. ATTIVITA' SOCIALI;statale;;;Sede centrale;"Istituto d'istruzione Secondaria Superiore - ""Santorre di Santarosa""";;POINT (7.642022894709434 45.06782908564249);45.06782908564249;7.642022894709434
143;BIMBI CLUB;TORINO;CORSO PESCHIERA 364;3;10139;011 715279;011 7791428;bimbic02@bimbiclub.191.it;http://www.pietrobaricco.scuole.piemonte.it;SCUOLA D'INFANZIA;;;non statale;paritaria;non convenzionata;Sede di plesso;;;POINT (7.627063209078167 45.07356561944388);45.07356561944388;7.627063209078167
144;PIETRO BARICCO;TORINO;CORSO PESCHIERA 380;3;10139;011 7790915;011 7790915;toee00500l@istruzione.it;http://www.scuolabaricco.it;SCUOLA PRIMARIA;;;statale;;;Sede di Plesso;"Circolo Didattico - ""Piertro Baricco""";;POINT (7.626013978696229 45.0739699879917);45.0739699879917;7.626013978696229
145;GABRIO CASATI;TORINO;CORSO RACCONIGI 31;3;10139;011 4472606;011 4472606;toee01200q@istruzione.it;;SCUOLA PRIMARIA;;;statale;;;Sede di Plesso;"Circolo Didattico - ""Casati""";;POINT (7.64720750885841 45.07143230499435);45.071432304994346;7.64720750885841
146;RE V. EMANUELE II;TORINO;CORSO REGINA MARGHERITA 107;1;10122;011 4360325;;;;SCUOLA D'INFANZIA;;;non statale;paritaria;convenzionata;Sede di plesso;;;POINT (7.686285838591903 45.07559760329284);45.07559760329284;7.686285838591903
147;G. RODARI;TORINO;CORSO REGINA MARGHERITA 43;7;10124;011 8123806;011 8124794;ic.viaricasoli@tiscali.it;http://ic-viaricasoli-torino.org/;SCUOLA D'INFANZIA;;;statale;;;Sede di plesso;"Istituto Comprensivo - ""Via Ricasoli""";;POINT (7.699728163185157 45.07114325647724);45.07114325647724;7.699728163185157
148;CORSO REGIO PARCO;TORINO;CORSO REGIO PARCO 19;7;10152;011 852341;011 2472125;segreteria@elementarelessona.it;;SCUOLA PRIMARIA;;;statale;;;Sede di Plesso;"Istituto Comprensivo - ""Lessona""";;POINT (7.694563966702951 45.0770953277945);45.0770953277945;7.694563966702951
149;A. AVOGADRO;TORINO;CORSO S. MAURIZIO 8;1;10124;011 8153611;011 8153700;segreteria@itisavogadro.it;http://www.itisavogadro.it;SCUOLA SEC. II GRADO;LICEO;LICEO SCIENTIFICO;statale;;;Scuola coordinata;"Istituto d'istruzione Secondaria Superiore - ""Avogadro""";;POINT (7.692891025860388 45.07102445274791);45.07102445274791;7.692891025860388
150;A. AVOGADRO;TORINO;CORSO S. MAURIZIO 8;1;10124;011 8153611;011 8153700;segreteria@itisavogadro.it;http://www.itisavogadro.it;SCUOLA SEC. II GRADO;I.T. SETT TECNOLOGICO;I.T. INDUSTRIALE;statale;;;Sede centrale;"Istituto d'istruzione Secondaria Superiore - ""Avogadro""";;POINT (7.692891025860388 45.07102445274791);45.07102445274791;7.692891025860388
151;LEONE SINIGAGLIA;TORINO;CORSO SEBASTOPOLI 258;2;10136;011 367407;011 361866;protocollo@scuolasinigaglia.it;http://share.dschola.it/sinigaglia;SCUOLA PRIMARIA;;;statale;;;Sede di Plesso;"Circolo Didattico - ""Sinigaglia""";;POINT (7.637307430744437 45.04809060641822);45.04809060641822;7.637307430744437
152;E. BORGARELLO;TORINO;CORSO SICILIA 24;8;10133;011 6614683;011 6614683;toee05100a@istruzione.it;http://pellico.scuole.piemonte.it;SCUOLA D'INFANZIA;;;statale;;;Sede di plesso;"Circolo Didattico - ""Pellico""";;POINT (7.682154940968441 45.04150113611972);45.04150113611972;7.682154940968441
153;MATTEOTTI;TORINO;CORSO SICILIA 40;8;10133;011 6614514;011 6612922;medmat@tiscali.it;http://www.scuolanievomatteotti.to.it;SCUOLA SEC. I GRADO;;;statale;;;Succursale;"Istituto Secondario I grado - ""Nievo - Matteotti""";;POINT (7.681508458836205 45.04018041435238);45.04018041435238;7.681508458836205
154;ISTITUTO SOCIALE;TORINO;CORSO SIRACUSA 10;2;10136;011 357835;011 3247487;bussosf@istitutosociale.it;http://www.istitutosociale.it;SCUOLA SEC. II GRADO;LICEO;LICEO CLASSICO;non statale;paritaria;;Sede centrale;"Istituto ""Sociale"", scuola diretta dai Padri Gesuiti";;POINT (7.634449270375777 45.05454476236216);45.05454476236216;7.634449270375777
155;ISTITUTO SOCIALE;TORINO;CORSO SIRACUSA 10;2;10136;011 357835;011 3247487;bussosf@istitutosociale.it;http://www.istitutosociale.it;SCUOLA PRIMARIA;;;non statale;paritaria;;Sede di Plesso;"Istituto ""Sociale"", scuola diretta dai Padri Gesuiti";;POINT (7.634449270375777 45.05454476236216);45.05454476236216;7.634449270375777
156;ISTITUTO SOCIALE;TORINO;CORSO SIRACUSA 10;2;10136;011 357835;011 3247487;bussosf@istitutosociale.it;http://www.istitutosociale.it;SCUOLA SEC. II GRADO;LICEO;LICEO SCIENTIFICO;non statale;paritaria;;Sezione differenziata;"Istituto ""Sociale"", scuola diretta dai Padri Gesuiti";;POINT (7.634449270375777 45.05454476236216);45.05454476236216;7.634449270375777
157;IST. SOCIALE;TORINO;CORSO SIRACUSA 10;2;10136;011 357835;011 3247487;bussosf@istitutosociale.it;http://www.istitutosociale.it;SCUOLA SEC. I GRADO;;;non statale;paritaria;;Sede centrale;"Istituto ""Sociale"", scuola diretta dai Padri Gesuiti";;POINT (7.634449270375777 45.05454476236216);45.05454476236216;7.634449270375777
158;ISTITUTO SOCIALE;TORINO;CORSO SIRACUSA 10;2;10136;011 357835;011 3247487;bussosf@istitutosociale.it;http://www.istitutosociale.it;SCUOLA D'INFANZIA;;;non statale;paritaria;non convenzionata;Sede di plesso;"Istituto ""Sociale"", scuola diretta dai Padri Gesuiti";;POINT (7.634449270375777 45.05454476236216);45.05454476236216;7.634449270375777
159;DE SANCTIS;TORINO;CORSO SVIZZERA 51;4;10143;011 7492513;011 745964;smsnigra@tin.it;http://www.nigra-to.it;SCUOLA SEC. I GRADO;;;statale;;;Succursale;"Istituto Secondario I grado - ""Costantino Nigra""";;POINT (7.650116831410315 45.08038645986945);45.08038645986945;7.6501168314103145
160;ALESSANDRO MANZONI;TORINO;CORSO SVIZZERA 59;4;10143;011 740308;011 748477;toee03900q@istruzione.it;;SCUOLA PRIMARIA;;;statale;;;Sede di Plesso;"Circolo Didattico - ""Manzoni""";;POINT (7.650565401839229 45.08153811206361);45.08153811206361;7.650565401839229
161;GUIDO GOZZANO;TORINO;CORSO TOSCANA 88;5;10149;011 731783;011 4551093;TOEE01700V@istruzione.it;;SCUOLA PRIMARIA;;;statale;;;Sede di Plesso;"Circolo Didattico - ""Nino Costa""";;POINT (7.654166997196979 45.09802120387823);45.09802120387823;7.654166997196979
162;F. FELLINI;TORINO;CORSO TRAPANI 25;3;10139;011 4345224;011 4345224;info@istitutofellini.it;http://www.istitutofellini.it;SCUOLA SEC. II GRADO;I.P. SETT SERVIZI;I. P. ATIPICO / ARTIGIANATO;non statale;paritaria;;Sede centrale;;;POINT (7.641480282610233 45.07242666682151);45.072426666821514;7.641480282610233
163;PRINCIPE VITTORIO EMANUELE;TORINO;CORSO UNIONE SOVIETICA 170;2;10134;011 3187247;011 3187247;ist.pve@libero.it;http://www.istitutoprincipevittorioemanuele.it;SCUOLA D'INFANZIA;;;non statale;paritaria;convenzionata;Sede di plesso;Istituto Principe Vittorio Emanuele;;POINT (7.655675034297104 45.04127291628931);45.04127291628931;7.655675034297104
164;PRINCIPE VITTORIO EMANUELE;TORINO;CORSO UNIONE SOVIETICA 170;2;10134;011 3187247;011 3187247;ist.pve@libero.it;http://www.istitutoprincipevittorioemanuele.it;SCUOLA PRIMARIA;;;non statale;paritaria;;Sede di Plesso;Istituto Principe Vittorio Emanuele;;POINT (7.655675034297104 45.04127291628931);45.04127291628931;7.655675034297104
165;PARROCCHIA MADONNA DELLE ROSE;TORINO;CORSO UNIONE SOVIETICA 223;8;10134;011 3172472;011 3172472;materna.madrose@tin.it;http://www.madonnadellerose.it;SCUOLA D'INFANZIA;;;non statale;paritaria;convenzionata;Sede di plesso;;;POINT (7.649648372017162 45.03512523666874);45.03512523666874;7.649648372017162
166;EDOARDO AGNELLI;TORINO;CORSO UNIONE SOVIETICA 312;2;10135;011 6198311;011 6198421;agnelli@agnelli.it;http://www.agnelli.it;SCUOLA SEC. I GRADO;;;non statale;paritaria;;Sede centrale;"Scuole Salesiane ""Edoardo Agnelli""";;POINT (7.645394016377752 45.03209400010423);45.03209400010423;7.645394016377752
167;EDOARDO AGNELLI;TORINO;CORSO UNIONE SOVIETICA 312;2;10135;011 6198311;011 6198421;"agnelli@agnelli.it; direzione@agnelli.it";http://www.agnelli.it;SCUOLA SEC. II GRADO;I.T. SETT TECNOLOGICO;I.T. INDUSTRIALE;non statale;paritaria;;Sede centrale;"Scuole Salesiane ""Edoardo Agnelli""";;POINT (7.645394016377752 45.03209400010423);45.03209400010423;7.645394016377752
168;EDOARDO AGNELLI;TORINO;CORSO UNIONE SOVIETICA 312;2;10135;011 6198311;011 6198421;"agnelli@agnelli.it; direzione@agnelli.it";http://www.agnelli.it;SCUOLA SEC. II GRADO;LICEO;LICEO SCIENTIFICO;non statale;paritaria;;Sezione differenziata;"Scuole Salesiane ""Edoardo Agnelli""";;POINT (7.645394016377752 45.03209400010423);45.03209400010423;7.645394016377752
169;RIEDUCAZIONE MINORI F. APORTI;TORINO;CORSO UNIONE SOVIETICA 327;8;10135;011 6171096;011 6190117;TOIC88200X@ISTRUZIONE.IT;http://www.cddogliotti.it;SCUOLA PRIMARIA;;;statale;;;Unit¿resso istituti penitenziari per minori o per adulti;"Circolo Didattico - ""Dogliotti""";;POINT (7.643216344920049 45.02950976348205);45.02950976348205;7.643216344920049
170;PRIMO LEVI;TORINO;CORSO UNIONE SOVIETICA 490;2;10135;011 3913030;011 3472032;tois04300d@istruzione.it;http://www.iisprimolevi.it/;SCUOLA SEC. II GRADO;I.T. SETT TECNOLOGICO;I.T. INDUSTRIALE;statale;;;Sede centrale;"Istituto d'istruzione Secondaria Superiore - ""Primo Levi""";;POINT (7.63071167083647 45.0191832240774);45.0191832240774;7.63071167083647
171;PRIMO LEVI;TORINO;CORSO UNIONE SOVIETICA 490;2;10135;011 3913030;011 3472032;tois04300d@istruzione.it;http://www.iisprimolevi.it/;SCUOLA SEC. II GRADO;LICEO;LICEO SCIENTIFICO;statale;;;Sezione differenziata;"Istituto d'istruzione Secondaria Superiore - ""Primo Levi""";;POINT (7.63071167083647 45.0191832240774);45.0191832240774;7.63071167083647
172;G. PEANO;TORINO;CORSO VENEZIA 29;5;10147;011 2293811;011 2161239;dirigente@peano.it;http://www.peano.it;SCUOLA SEC. II GRADO;I.T. SETT TECNOLOGICO;I.T. INDUSTRIALE;statale;;;Sede centrale;"Istituto d'istruzione Secondaria Superiore - ""Giuseppe Peano""";;POINT (7.680901927248837 45.09415425803819);45.09415425803819;7.680901927248837
173;G. PEANO SEZ. SERALE;TORINO;CORSO VENEZIA 29;5;10147;011 2293811;011 2161239;dirigente@peano.it;http://www.peano.it;SCUOLA SEC. II GRADO;I.T. SETT TECNOLOGICO;I.T. INDUSTRIALE;statale;;;Sede centrale;"Istituto d'istruzione Secondaria Superiore - ""Giuseppe Peano""";;POINT (7.680901927248837 45.09415425803819);45.09415425803819;7.680901927248837
174;G. PEANO;TORINO;CORSO VENEZIA 29;5;10147;011 2293811;011 2161239;dirigente@peano.it;http://www.peano.it;SCUOLA SEC. II GRADO;LICEO;LICEO SCIENTIFICO;statale;;;Scuola coordinata;"Istituto d'istruzione Secondaria Superiore - ""Giuseppe Peano""";;POINT (7.680901927248837 45.09415425803819);45.09415425803819;7.680901927248837
175;G.B. VIOTTI;TORINO;CORSO VERCELLI 141;6;10155;011 200076;011 2465395;tomm078009@istruzione.it;http://www.scuolaviottitorino.it/;SCUOLA SEC. I GRADO;;;statale;;;Sede centrale;"Istituto Secondario I grado - ""G.B. Viotti""";;POINT (7.692304844984369 45.09742551611152);45.09742551611152;7.692304844984369
176;MARCHESA;TORINO;CORSO VERCELLI 141;6;10155;011 266836;011 2462435;TOEE05600D@istruzione.it;;SCUOLA PRIMARIA;;;statale;;;Sede di Plesso;"Circolo Didattico - ""Sabin""";;POINT (7.692304844984369 45.09742551611152);45.09742551611152;7.692304844984369
177;SABIN;TORINO;CORSO VERCELLI 157;6;10155;011 2053274;011 2462435;TOEE05600D@istruzione.it;;SCUOLA PRIMARIA;;;statale;;;Sede di Plesso;"Circolo Didattico - ""Sabin""";;POINT (7.692786199466789 45.09840686620232);45.098406866202325;7.692786199466789
178;SCUOLA SAINT DENIS BABY SAS;TORINO;CORSO VITTORIO EMANUELE II 2;1;10123;011 8121880;011 6606249;info@saintdenisschool.it;http://www.saintdenisschool.it;SCUOLA D'INFANZIA;;;non statale;non paritaria;;Sede di plesso;;;POINT (7.690501501229464 45.05893023974087);45.058930239740874;7.690501501229464
179;ARDUINO;TORINO;PIAZZA POLONIA 94;8;10126;011 8197133;;arduino@itcarduino.it;http://www.itcarduino.it;SCUOLA SEC. II GRADO;I.T. SETT ECONOMICO;I.T. COMMERCIALE;statale;;;Unit¿resso sede ospedaliera;"Istituto d'istruzione Secondaria Superiore - ""Vera e Libera Arduino""";;POINT (7.675185465696078 45.03493188237784);45.03493188237784;7.675185465696078
180;PEYRON - FERMI C/O OSPEDALE INFANTILE;TORINO;PIAZZA POLONIA 94;8;10126;011 3135457;011 3135457;tomm26000t@istruzione.it;http://www.scuolapeyronfermi.it;SCUOLA SEC. I GRADO;;;statale;;;Unit¿resso sede ospedaliera;"Istituto Secondario I grado - ""Peyron - Fermi""";;POINT (7.675185465696078 45.03493188237784);45.03493188237784;7.675185465696078
181;SCUOLA OSPEDALIERA;TORINO;PIAZZA POLONIA 94;8;10126;;;toee07200b@istruzione.it;http://vittorinodafeltre.scuole.piemonte.it;SCUOLA PRIMARIA;;;statale;;;Unit¿resso sede ospedaliera;"Circolo Didattico - ""Vittorino da Feltre""";;POINT (7.675185465696078 45.03493188237784);45.03493188237784;7.675185465696078
182;A. STEINER;TORINO;LUNGO DORA AGRIGENTO 20 int. 10/A;7;10144;011 4310872;011 4362618;TORC090001@istruzione.it;http://www.istitutoalbesteiner.it;SCUOLA SEC. II GRADO;I.P. SETT SERVIZI;I. P. ATIPICO / ARTIGIANATO;statale;;;Scuola coordinata;"Istituto d'istruzione Secondaria Superiore - ""Albe Steiner""";;POINT (7.683737533348521 45.08251057135427);45.08251057135427;7.683737533348521
183;A. STEINER;TORINO;LUNGO DORA AGRIGENTO 20 int. 10/A;7;10144;011 4310872;011 4362618;TORC090001@istruzione.it;http://www.istitutoalbesteiner.it;SCUOLA SEC. II GRADO;I.P. SETT SERVIZI;I. P. SERV. COMM. TURIS. PUBBL;statale;;;Sede centrale;"Istituto d'istruzione Secondaria Superiore - ""Albe Steiner""";;POINT (7.683737533348521 45.08251057135427);45.08251057135427;7.683737533348521
184;G. PLANA;TORINO;PIAZZA DI ROBILANT CARLO 5;3;10141;011 331005  - 011 331522;011 3855472;segreteria@ipiaplana.it;http://www.ipiaplana.it;SCUOLA SEC. II GRADO;I.P. SETT SERVIZI;I. P. SANITARIO E AUSILIARIO;statale;;;Scuola coordinata;"Istituto d'istruzione Secondaria Superiore - ""Plana""";;POINT (7.645776929285405 45.06082064806046);45.060820648060464;7.645776929285405
185;G. PLANA;TORINO;PIAZZA DI ROBILANT CARLO 5;3;10141;011 331005  - 011 331522;011 3855472;segreteria@ipiaplana.it;http://www.ipiaplana.it;SCUOLA SEC. II GRADO;I.P. SETT. INDUSTRIA E ARTIGIANATO;I.P. INDUSTRIA E ARTIG.;statale;;;Sede centrale;"Istituto d'istruzione Secondaria Superiore - ""Plana""";;POINT (7.645776929285405 45.06082064806046);45.060820648060464;7.645776929285405
186;G. PLANA SEZ. SERALE;TORINO;PIAZZA DI ROBILANT CARLO 5;3;10141;011 331005  - 011 331522;011 3855472;segreteria@ipiaplana.it;http://www.ipiaplana.it;SCUOLA SEC. II GRADO;I.P. SETT. INDUSTRIA E ARTIGIANATO;I.P. INDUSTRIA E ARTIG.;statale;;;Sede centrale;"Istituto d'istruzione Secondaria Superiore - ""Plana""";;POINT (7.645776929285405 45.06082064806046);45.060820648060464;7.645776929285405
187;FERMI;TORINO;PIAZZA CARLO GIACOMINI 24;8;10126;011 6964134;011 6631392;tomm26000t@istruzione.it;http://www.scuolapeyronfermi.it;SCUOLA SEC. I GRADO;;;statale;;;Succursale;"Istituto Secondario I grado - ""Peyron - Fermi""";;POINT (7.670752246812711 45.03435725017767);45.03435725017767;7.670752246812711
188;G. C. ABBA;TORINO;PIAZZA GIUSEPPE CESARE ABBA 13;6;10154;011 203433;011 267639;ddnovaro@tin.it;;SCUOLA PRIMARIA;;;statale;;;Sede di Plesso;"Circolo Didattico ""Novaro""";;POINT (7.714379387974245 45.09120642808767);45.091206428087666;7.714379387974245
189;PIAZZA ABBA 9;TORINO;PIAZZA GIUSEPPE CESARE ABBA 9;6;10154;011 204008;011 267639;ddnovaro@tin.it;;SCUOLA D'INFANZIA;;;statale;;;Sede di plesso;"Circolo Didattico ""Novaro""";;POINT (7.714323459674582 45.09066012020686);45.09066012020686;7.714323459674582
190;ARCOBALENO;TORINO;PIAZZA GIUSEPPE MANNO 22;5;10151;011 4420539 - 011 4420530;011 4420529;smmmanno@comune.torino.it;;SCUOLA D'INFANZIA;;;non statale;paritaria;comunale;Sede di plesso;;;POINT (7.655473894001346 45.10510258170041);45.10510258170041;7.655473894001346
191;MARIA AUSILIATRICE;TORINO;PIAZZA MARIA AUSILIATRICE 27;7;10152;011 4365676;011 4360441;segreteria.liceo@liceoausiliatrice.it;http://www.liceoausiliatrice.it;SCUOLA PRIMARIA;;;non statale;paritaria;;Sede di Plesso;Istituto Maria Ausiliatrice;;POINT (7.675249206904452 45.08021747134087);45.08021747134087;7.675249206904452
192;M. AUSILIATRICE;TORINO;PIAZZA MARIA AUSILIATRICE 27;7;10152;011 4365676;011 4360441;segreteria.liceo@liceoausiliatrice.it;http://www.liceoausiliatrice.it;SCUOLA SEC. II GRADO;LICEO;LICEO LINGUISTICO;non statale;paritaria;;Scuola coordinata;Istituto Maria Ausiliatrice;;POINT (7.675249206904452 45.08021747134087);45.08021747134087;7.675249206904452
193;M. AUSILIATRICE;TORINO;PIAZZA MARIA AUSILIATRICE 27;7;10152;011 4365676;011 4360441;segreteria.liceo@liceoausiliatrice.it;http://www.liceoausiliatrice.it;SCUOLA SEC. II GRADO;LICEO;LICEO SCIENZE UMANE - EX IST. E SC. MAGISTR;non statale;paritaria;;Sede centrale;Istituto Maria Ausiliatrice;;POINT (7.675249206904452 45.08021747134087);45.08021747134087;7.675249206904452
194;MARIA AUSILIATRICE;TORINO;PIAZZA MARIA AUSILIATRICE 27;7;10152;011 4365676;011 4360441;segreteria.liceo@liceoausiliatrice.it;http://www.liceoausiliatrice.it;SCUOLA SEC. I GRADO;;;non statale;paritaria;;Sede centrale;Istituto Maria Ausiliatrice;;POINT (7.675249206904452 45.08021747134087);45.08021747134087;7.675249206904452
195;PRINC. CLOTILDE;TORINO;PIAZZA MARIA AUSILIATRICE 27;7;10152;011 4365676;011 4360441;materna@liceoausiliatrice.it;http://www.liceoausiliatrice.it;SCUOLA D'INFANZIA;;;non statale;paritaria;convenzionata;Sede di plesso;;;POINT (7.675249206904452 45.08021747134087);45.08021747134087;7.675249206904452
196;SCUOLA D'INFANZIA;TORINO;PIAZZA PIETRO FRANCESCO GUALA 140;8;10135;011 616087;011 3167157;smmguala@comune.torino.it;hpp://maternaguala.scuole.piemonte.it;SCUOLA D'INFANZIA;;;non statale;paritaria;comunale;Sede di plesso;;;POINT (7.640895879293278 45.02276218283116);45.02276218283116;7.640895879293278
197;KOALA;TORINO;PIAZZA STATUTO 2;1;10122;011 4369181;011 4363238;istituto.koala@gmail.com;;SCUOLA D'INFANZIA;;;non statale;paritaria;non convenzionata;Sede di plesso;;;POINT (7.672811890399289 45.07587438000559);45.07587438000559;7.672811890399289
198;GIUSTI;TORINO;PIAZZA VITTORIO VENETO 13;1;10124;011 8171779;011 885507;liceogiusti@libero.it;http://www.liceogiusti.it;SCUOLA SEC. II GRADO;LICEO;LICEO CLASSICO;non statale;paritaria;;Sede centrale;;;POINT (7.695658642392473 45.06534664902375);45.06534664902375;7.695658642392473
199;ELSA MORANTE;TORINO;PIAZZETTA LUCIANO JONA 4;2;10135;011 3979769;011 19703254;segreteriasalvemini@fastwebnet.it;http://www.gaetanosalvemini.scuole.piemonte.it;SCUOLA PRIMARIA;;;statale;;;Succursale;"Istituto Comprensivo - Gaetano Salvemini""";;POINT (7.614316850000674 45.01999641328936);45.019996413289356;7.614316850000674
200;C. COLOMBO;TORINO;PIAZZETTA LUCIANO JONA 5;2;10135;011 3472344;011 19703254;segreteriasalvemini@fastwebnet.it;http://www.gaetanosalvemini.scuole.piemonte.it;SCUOLA SEC. I GRADO;;;statale;;;Sede centrale;"Istituto Comprensivo - Gaetano Salvemini""";;POINT (7.614638851763432 45.01966586239941);45.01966586239941;7.6146388517634325
201;MIRAFIORI NORD;TORINO;PIAZZETTA LUCIANO JONA 6;2;10135;011 3913181;011 3919181;smmjona@comune.torino.it;;SCUOLA D'INFANZIA;;;non statale;paritaria;comunale;Sede di plesso;;;POINT (7.614067467622887 45.01967756942791);45.019677569427905;7.6140674676228866
202;PIETRO MICCA;TORINO;STRADA BERTOLLA 50;6;10156;011 2731126;011 2731126;toic80500e@istruzione.it;http://cenatorino.scuole.piemonte.it;SCUOLA PRIMARIA;;;statale;;;Sede di Plesso;"Istituto Comprensivo - ""Cena""";;POINT (7.743935745660513 45.0998827563471);45.0998827563471;7.743935745660513
203;L. GRASSI;TORINO;STRADA BERTOLLA 74;6;10156;011 2730009;011 2470756;sc.mat.grassi@tiscali.it;;SCUOLA D'INFANZIA;;;non statale;paritaria;convenzionata;Sede di plesso;;;POINT (7.745327004852787 45.10000002567978);45.100000025679776;7.745327004852787
204;SALVATORE FIORINA;TORINO;STRADA DEI CALLERI 10;7;10132;011 8980430;011 8980430;toic81800l@istruzione.it;http://www.gozzi-olivetti.org;SCUOLA D'INFANZIA;;;statale;;;Sede di plesso;"Istituto Comprensivo - ""Gozzi Olivetti""";;POINT (7.739780611620698 45.05995783648623);45.059957836486234;7.739780611620698
205;COMUNALE STRADA CASTELLO DI MIRAFIORI;TORINO;STRADA CASTELLO DI MIRAFIORI 43;2;10135;011 4433770;011 4433799;smmcastellodimirafiori@comune.torino.it;;SCUOLA D'INFANZIA;;;non statale;paritaria;comunale;Sede di plesso;;;POINT (7.628406708174667 45.01223834493854);45.01223834493854;7.628406708174667
206;CASTELLO DI MIRAFIORI;TORINO;STRADA CASTELLO DI MIRAFIORI 45;2;10135;011 3489868;011 3489868;toic81100t@istruzione.it;http://www.castellomirafiori.it;SCUOLA SEC. I GRADO;;;statale;;;Sede centrale;"Istituto Comprensivo - ""Castello Mirafiori""";;POINT (7.628899307330069 45.01216719861507);45.012167198615074;7.628899307330069
207;CASTELLO DI MIRAFIORI;TORINO;STRADA CASTELLO DI MIRAFIORI 45;2;10135;011 3489868;011 3489868;toic81100t@istruzione.it;http://www.castellomirafiori.it;SCUOLA PRIMARIA;;;statale;;;Sede di Plesso;"Istituto Comprensivo - ""Castello Mirafiori""";;POINT (7.628899307330069 45.01216719861507);45.012167198615074;7.628899307330069
208;MARGHERITA MIRAFIORI;TORINO;STRADA CASTELLO DI MIRAFIORI 46;2;10135;011 342067;011 342067;margheritamirafiori@virgilio.it;http://www.diocesi.torino.it/parr110;SCUOLA D'INFANZIA;;;non statale;paritaria;convenzionata;Sede di plesso;;;POINT (7.628201648941433 45.01197195908803);45.01197195908803;7.628201648941433
209;CAVORETTO;TORINO;STRADA DEI RONCHI 27;8;10133;011 6612929;011 6610385;smmronchi@comune.torino.it;;SCUOLA D'INFANZIA;;;non statale;paritaria;comunale;Sede di plesso;;;POINT (7.690727961995788 45.0293580546136);45.0293580546136;7.690727961995788
210;IL CUCCIOLO;TORINO;STRADA DEI TADINI 47 int. 12;8;10131;011 6603683;011 6608556;scuolailcucciolo@mac.com;http://www.scuolailcucciolo.it;SCUOLA PRIMARIA;;;non statale;non paritaria;;Sede di Plesso;Scuola Il Cucciolo;;POINT (7.713346343199626 45.04907819290754);45.049078192907544;7.713346343199626
211;IL CUCCIOLO;TORINO;STRADA DEI TADINI 47 int. 12;8;10131;011 6603683;011 6608556;scuolailcucciolo@mac.com;http://www.scuolailcucciolo.it;SCUOLA D'INFANZIA;;;non statale;paritaria;non convenzionata;Sede di plesso;Scuola Il Cucciolo;;POINT (7.713346343199626 45.04907819290754);45.049078192907544;7.713346343199626
212;DI STRADA DI LANZO 146;TORINO;STRADA LANZO 146;5;10148;011 2262380;011 2207684;toee010004@istruzione.it;;SCUOLA D'INFANZIA;;;statale;;;Sede di plesso;"Circolo Didattico - ""Ferruccio Parri""";;POINT (7.657296913279231 45.11769515002098);45.11769515002098;7.6572969132792315
213;F. PARRI;TORINO;STRADA LANZO 147 int. 11;5;10148;011 2262461;011 2207684;toee010004@istruzione.it;;SCUOLA PRIMARIA;;;statale;;;Sede di Plesso;"Circolo Didattico - ""Ferruccio Parri""";;POINT (7.656768796241632 45.11587306679141);45.11587306679141;7.656768796241632
214;VITTORIO AMEDEO II;TORINO;STRADA MONGRENO 53;7;10132;011 8980256;011 8980256;toic81800l@istruzione.it;http://www.gozzi-olivetti.org;SCUOLA PRIMARIA;;;statale;;;Sede di Plesso;"Istituto Comprensivo - ""Gozzi Olivetti""";;POINT (7.737589248037601 45.07844230323202);45.078442303232016;7.737589248037601
215;SASSI;TORINO;STRADA MONGRENO 72;7;10132;011 8996226;;smmmongreno@comune.torino.it;;SCUOLA D'INFANZIA;;;non statale;paritaria;comunale;Sede di plesso;;;POINT (7.738365768166064 45.07722968962839);45.07722968962839;7.738365768166064
216;VILLA GENERO;TORINO;STRADA S. MARGHERITA 77;8;10131;011 8193236;011 8194321;smmsantamargherita@comune.torino.it;;SCUOLA D'INFANZIA;;;non statale;paritaria;comunale;Sede di plesso;;;POINT (7.708220204668748 45.05632438670954);45.05632438670954;7.708220204668748
217;MARTIRI DEL MARTINETTO;TORINO;STRADA S. MAURO 24;6;10156;011 2733165;011 2238274;toic80500e@istruzione.it;http://cenatorino.scuole.piemonte.it;SCUOLA SEC. I GRADO;;;statale;;;Sede staccata;"Istituto Comprensivo - ""Cena""";;POINT (7.725872819146526 45.0996487757144);45.0996487757144;7.725872819146526
218;GIOVANNI CENA;TORINO;STRADA S. MAURO 32;6;10156;011 2730154;011 2238274;toic80500e@istruzione.it;http://cenatorino.scuole.piemonte.it;SCUOLA PRIMARIA;;;statale;;;Sede di Plesso;"Istituto Comprensivo - ""Cena""";;POINT (7.726924841649214 45.09977046704324);45.099770467043236;7.726924841649214
219;S. MARGHERITA;TORINO;STRADA S. VINCENZO 144;8;10131;011 8197224;011 8192681;segreteria.dd.dazeglio@gmail.comt;http://share.dschola.it/rdazeglioto/default.aspx;SCUOLA D'INFANZIA;;;statale;;;Sede di plesso;"Circolo Didattico - ""Roberto d'Azeglio""";;POINT (7.718646827123587 45.05205577646512);45.052055776465124;7.718646827123587
220;SAN GIACOMO;TORINO;STRADA S. VINCENZO 40 int. 2 int. B;8;10131;011 19712238;011 8192681;scuola.sgiacomo@gmail.com;http://share.dschola.it/rdazeglioto/default.aspx;SCUOLA PRIMARIA;;;statale;;;Sede di Plesso;"Circolo Didattico - ""Roberto d'Azeglio""";;POINT (7.714718894166304 45.0452355962178);45.0452355962178;7.714718894166304
221;SAINT DENIS;TORINO;STRADA VAL S. MARTINO SUPERIORE 24 int. 8;7;10131;011 8190098;011 8190098;info@scuolamaterna-saintdenis.com;http://www.scuolamaterna-saintdenis.com;SCUOLA D'INFANZIA;;;non statale;paritaria;non convenzionata;Sede di plesso;;;POINT (7.718938861002041 45.06294896491779);45.062948964917794;7.718938861002041
222;COLOMBATTO;TORINO;VIA ADA NEGRI 15;2;10136;011 3293993;011 323871;colombatto@tin.it;http://www.alberghierotorino.it;SCUOLA SEC. II GRADO;I.P. SETT SERVIZI;I. P. SERVIZI ALBERGHIERI;statale;;;Succursale;"Istituto d'istruzione Secondaria Superiore - ""Giuseppina Colombatto""";;POINT (7.642475507595902 45.0516013809251);45.0516013809251;7.642475507595902
223;EUGENIO MONTALE;TORINO;VIA ADA NEGRI 21;2;10136;011 363142;011 361866;elementare@scuolamontale-sinigaglia.it;http://share.dschola.it/sinigaglia;SCUOLA PRIMARIA;;;statale;;;Sede di Plesso;;;POINT (7.641067266427918 45.05205611564176);45.05205611564176;7.641067266427918
224;ADA NEGRI;TORINO;VIA ADA NEGRI 23;2;10136;011 367427;011 357350;tomm00900v@istruzione.it;http://www.cadutidicefalonia.it;SCUOLA SEC. I GRADO;;;statale;;;Succursale;"Istituto Secondario I grado - ""Caduti di Cefalonia""";;POINT (7.640676145701494 45.05218147925795);45.052181479257946;7.6406761457014944
225;DE PANIS;TORINO;VIA ALA DI STURA 23;5;10147;011 2205833;011 2205888;smmaladistura@comune.torino.it;;SCUOLA D'INFANZIA;;;non statale;paritaria;comunale;Sede di plesso;;;POINT (7.684642404806088 45.10363592487885);45.10363592487885;7.684642404806088
226;G. GIOLITTI;TORINO;VIA ALASSIO 20;8;10126;011 6635203;011 6634660;segreteria@istitutogiolitti.org;http://www.istitutogiolitti.org;SCUOLA SEC. II GRADO;I.T. SETT ECONOMICO;I.T. PER IL TURISMO;statale;;;Scuola coordinata;"Istituto d'istruzione Secondaria Superiore - ""Giovanni Giolitti""";;POINT (7.668965253314027 45.03932866227959);45.03932866227959;7.668965253314027
227;G. GIOLITTI;TORINO;VIA ALASSIO 20;8;10126;011 6635203 - 011 6963017;011 6634660;segreteria@istitutogiolitti.org;http://www.istitutogiolitti.org;SCUOLA SEC. II GRADO;I.P. SETT SERVIZI;I. P. SERV. COMM. TURIS. PUBBL;statale;;;Sede centrale;"Istituto d'istruzione Secondaria Superiore - ""Giovanni Giolitti""";;POINT (7.668965253314027 45.03932866227959);45.03932866227959;7.668965253314027
228;G. GIOLITTI;TORINO;VIA ALASSIO 20;8;10126;011 6635203 - 011 6963017;011 6634660;segreteria@istitutogiolitti.org;http://www.istitutogiolitti.org;SCUOLA SEC. II GRADO;I.P. SETT SERVIZI;I. P. SERVIZI ALBERGHIERI;statale;;;Sezione differenziata;"Istituto d'istruzione Secondaria Superiore - ""Giovanni Giolitti""";;POINT (7.668965253314027 45.03932866227959);45.03932866227959;7.668965253314027
229;DI VIA ALASSIO 22;TORINO;VIA ALASSIO 22;8;10126;011 4429360;011 4429370;smmalassio@comune.torino.it;;SCUOLA D'INFANZIA;;;non statale;paritaria;comunale;Sede di plesso;;;POINT (7.669166059825574 45.0392875522566);45.039287552256596;7.669166059825574
230;G.B. VIOTTI;TORINO;VIA ALESSANDRO SCARLATTI 13/C;6;10154;011 858387;011 858387;tomm078009@istruzione.it;http://www.scuolaviottitorino.it/;SCUOLA SEC. I GRADO;;;statale;;;Succursale;"Istituto Secondario I grado - ""G.B. Viotti""";;POINT (7.695581830169083 45.09053566315124);45.090535663151236;7.695581830169083
231;G. CAPPONI;TORINO;VIA ALFONSO BADINI CONFALONIERI 74;5;10148;011 2745481;011 2745481;toee010004@istruzione.it;;SCUOLA PRIMARIA;;;statale;;;Sede di Plesso;"Circolo Didattico - ""Ferruccio Parri""";;POINT (7.657383560057754 45.10957074581619);45.10957074581619;7.657383560057754
232;C. OLIVETTI;TORINO;VIA ALFREDO CATALANI 4;7;10132;011 8996988;011 8990261;toic81800l@istruzione.it;http://www.gozzi-olivetti.org;SCUOLA SEC. I GRADO;;;statale;;;Succursale;"Istituto Comprensivo - ""Gozzi Olivetti""";;POINT (7.730537669045576 45.07731113094002);45.07731113094002;7.730537669045576
233;Onorato Morelli;TORINO;VIA ALL' ASILO 3;8;10133;011 6612588;011 6612116;asilomorelli@gmail.com;;SCUOLA D'INFANZIA;;;non statale;paritaria;convenzionata;Sede di plesso;;;POINT (7.686481333122674 45.0288269683719);45.028826968371895;7.686481333122674
234;G. B. BODONI;TORINO;VIA AMILCARE PONCHIELLI 56;6;10154;011 2481711;011 2485431;iisbodoni@istitutobodoni.it;http://www.istitutobodoni.it;SCUOLA SEC. II GRADO;I.T. SETT TECNOLOGICO;I.T. INDUSTRIALE;statale;;;Sede centrale;"Istituto d'istruzione Secondaria Superiore - ""Bodoni - Paravia""";;POINT (7.705923410255343 45.08586216740574);45.08586216740574;7.705923410255343
235;VIGLIARDI PARAVIA;TORINO;VIA AMILCARE PONCHIELLI 56;6;10154;011 2481711;011 2485431;iisbodoni@istitutobodoni.it;http://www.istitutobodoni.it;SCUOLA SEC. II GRADO;I.P. SETT SERVIZI;I. P. ATIPICO / ARTIGIANATO;statale;;;Sezione differenziata;"Istituto d'istruzione Secondaria Superiore - ""Bodoni - Paravia""";;POINT (7.705923410255343 45.08586216740574);45.08586216740574;7.705923410255343
236;M.L. KING (EX MILA);TORINO;VIA ANASTASIO GERMONIO 12;3;10142;011 4032593;011 4033661;scuolamlk@virgilio.it;http://www.icking-to.it;SCUOLA SEC. I GRADO;;;statale;;;Sede staccata;"Istituto Comprensivo - ""M.L. King""";;POINT (7.610941529340096 45.07292373113491);45.07292373113491;7.610941529340096
237;MUNICIPALE;TORINO;VIA ANASTASIO GERMONIO 35;3;10142;011 4115437;011 3828505 - 011 40;smmgermonio@comune.torino.it;;SCUOLA D'INFANZIA;;;non statale;paritaria;comunale;Sede di plesso;;;POINT (7.611283319534182 45.07102217804302);45.07102217804302;7.611283319534182
238;M. L. KING 1;TORINO;VIA ANASTASIO GERMONIO 4;3;10142;011 4031377;011 4033698;scuolamlk@virgilio.it;http://www.icking-to.it;SCUOLA PRIMARIA;;;statale;;;Sede di Plesso;"Istituto Comprensivo - ""M.L. King""";;POINT (7.610880721151048 45.07368724878437);45.07368724878437;7.610880721151048
239;SANT'ANNA;TORINO;VIA ANDREA MASSENA 36;1;10128;011 5166614;011 5166649;istituto.santanna32@libero.it;http://www.istituto-santanna.it;SCUOLA SEC. I GRADO;;;non statale;paritaria;;Sede centrale;"Istituto Paritario ""S. Anna""";;POINT (7.672454998068478 45.06053073232212);45.06053073232212;7.672454998068478
240;SANT' ANNA;TORINO;VIA ANDREA MASSENA 36;1;10128;011 5166614;011 5166649;istituto.santanna32@libero.it;http://www.istituto-santanna.it;SCUOLA SEC. II GRADO;LICEO;LICEO SCIENTIFICO;non statale;paritaria;;Sede centrale;"Istituto Paritario ""S. Anna""";;POINT (7.672454998068478 45.06053073232212);45.06053073232212;7.672454998068478
241;SANT'ANNA;TORINO;VIA ANDREA MASSENA 36;1;10128;011 5166614;011 5166649;istituto.santanna32@libero.it;http://www.istituto-santanna.it;SCUOLA PRIMARIA;;;non statale;paritaria;;Sede di Plesso;"Istituto Paritario ""S. Anna""";;POINT (7.672454998068478 45.06053073232212);45.06053073232212;7.672454998068478
242;SANT'ANNA;TORINO;VIA ANDREA MASSENA 36;1;10128;011 5166614;011 5166649;istituto.santanna32@libero.it;http://www.istituto-santanna.it;SCUOLA D'INFANZIA;;;non statale;paritaria;convenzionata;Sede di plesso;"Istituto Paritario ""S. Anna""";;POINT (7.672454998068478 45.06053073232212);45.06053073232212;7.672454998068478
243;RIGNON;TORINO;VIA ANDREA MASSENA 39;1;10128;011 532430;011 532430;toee016003@istruzione.it;http://www.scuolacoppino.it;SCUOLA PRIMARIA;;;statale;;;Sede di Plesso;"Circolo Didattico - ""Coppino""";;POINT (7.671838580955921 45.05941801400385);45.05941801400385;7.671838580955921
244;SANSOVINO;TORINO;VIA ANDREA SANSOVINO 111;5;10151;011 732318;011 4553875;smmsansovino@comune.torino.it;;SCUOLA D'INFANZIA;;;non statale;paritaria;comunale;Sede di plesso;;;POINT (7.642815967289082 45.10320428345226);45.103204283452264;7.642815967289082
245;Paolo BOSELLI;TORINO;VIA ANDREA SANSOVINO 150;5;10151;011 7394482;011 731738;didattica@ipcboselli.it;http://www.istitutoboselli.it;SCUOLA SEC. II GRADO;I.T. SETT ECONOMICO;I.T. PER IL TURISMO;statale;;;Scuola coordinata;"Istituto ""Paolo Boselli""";;POINT (7.646874454434764 45.10521109364269);45.10521109364269;7.646874454434764
246;Paolo BOSELLI;TORINO;VIA ANDREA SANSOVINO 150;5;10151;011 7394482;011 731738;didattica@ipcboselli.it;http://www.istitutoboselli.it;SCUOLA SEC. II GRADO;I.P. SETT SERVIZI;I. P. SERVIZI SOCIALI;statale;;;Scuola coordinata;"Istituto ""Paolo Boselli""";;POINT (7.646874454434764 45.10521109364269);45.10521109364269;7.646874454434764
247;P. BOSELLI;TORINO;VIA ANDREA SANSOVINO 150;5;10151;011 7394482;011 731738;didattica@ipcboselli.it;http://www.istitutoboselli.it;SCUOLA SEC. II GRADO;I.P. SETT SERVIZI;I. P. SERV. COMM. TURIS. PUBBL;statale;;;Succursale;"Istituto ""Paolo Boselli""";;POINT (7.646874454434764 45.10521109364269);45.10521109364269;7.646874454434764
248;REGINA PACIS;TORINO;VIA ANGELO MESSEDAGLIA 7;5;10149;011 2296200;;sc-inf-reginapacis@libero.it;;SCUOLA D'INFANZIA;;;non statale;paritaria;convenzionata;Sede di plesso;;;POINT (7.660210154025756 45.09798257601818);45.09798257601818;7.660210154025756
249;PESTALOZZI;TORINO;VIA ANTONIO BANFO 32;6;10155;011 852641;011 2730009;scgabel@tin.it;http://www.arigabelli.it;SCUOLA PRIMARIA;;;statale;;;Sede di Plesso;"Direzione Didatrica - ""Aristide Gabelli""";;POINT (7.687165654242007 45.09151380875072);45.09151380875072;7.687165654242007
250;AURORA;TORINO;VIA ANTONIO CECCHI 16;7;10152;011 852430;011 852430;TOEE05000E@istruzione.it;http://www.scuolaparini.it;SCUOLA PRIMARIA;;;statale;;;Sede di Plesso;"Circolo Didattico - ""Giuseppe Parini""";;POINT (7.682740001564456 45.08540669906852);45.08540669906852;7.682740001564456
251;MORELLI;TORINO;VIA ANTONIO CECCHI 18;7;10152;011 854049;011 854049;morellivice@yahoo.it;;SCUOLA SEC. I GRADO;;;statale;;;Succursale;"Istituto Secondario I grado ""Croce-Morelli""";;POINT (7.682423506489415 45.08574374914819);45.08574374914819;7.682423506489415
252;MARC CHAGALL;TORINO;VIA ANTONIO CECCHI 2;7;10152;011 2472124;011 287033;smmcecchi@comune.torino.it;;SCUOLA D'INFANZIA;;;non statale;paritaria;comunale;Sede di plesso;;;POINT (7.683670752656029 45.08455295492317);45.08455295492317;7.683670752656029
253;CONVITTO NAZIONALE UMBERTO I;TORINO;VIA ANTONIO GIUSEPPE BERTOLA 10;1;10121;011 5217976;011 5217976;secondariaprimogrado@cnuto.it;http://www.cnuto.it;SCUOLA SEC. I GRADO;;;statale;;;Sede staccata;Convitto Nazionale Umberto I;;POINT (7.681495805596709 45.07009778034243);45.07009778034243;7.681495805596709
254;SCUOLA D'INFANZIA;TORINO;VIA ANTONIO GIUSEPPE BERTOLA 56/A;1;10122;011 543804 - 011 5173417;011 4425390;smmbertola@comune.torino.it;http://www.intracom.comune.torino.it;SCUOLA D'INFANZIA;;;non statale;paritaria;comunale;Sede di plesso;;;POINT (7.673375661775242 45.07286173719157);45.072861737191566;7.673375661775242
255;VALENTINO BOSSO - AUGUSTO MONTI;TORINO;VIA ANTONIO MEUCCI 9;1;10121;011 5622142;011 5619903;bossomonti@hotmail.com;http://www.valentinobosso.it;SCUOLA SEC. II GRADO;I.P. SETT SERVIZI;I. P. SERVIZI SOCIALI;statale;;;Scuola coordinata;"Istituto ""Bosso-Monti"" di Torino";;POINT (7.674665229262226 45.06977090476238);45.06977090476238;7.674665229262226
256;VALENTINO BOSSO - AUGUSTO MONTI;TORINO;VIA ANTONIO MEUCCI 9;1;10121;011 5622142;011 5619903;bossomonti@hotmail.com;http://www.valentinobosso.it;SCUOLA SEC. II GRADO;I.T. SETT ECONOMICO;I.T. PER IL TURISMO;statale;;;Scuola coordinata;"Istituto ""Bosso-Monti"" di Torino";;POINT (7.674665229262226 45.06977090476238);45.06977090476238;7.674665229262226
257;VALENTINO BOSSO - AUGUSTO MONTI;TORINO;VIA ANTONIO MEUCCI 9;1;10121;011 5622142;011 5619903;bossomonti@hotmail.com;http://www.valentinobosso.it;SCUOLA SEC. II GRADO;I.P. SETT SERVIZI;I. P. SERV. COMM. TURIS. PUBBL;statale;;;Sede centrale;"Istituto ""Bosso-Monti"" di Torino";;POINT (7.674665229262226 45.06977090476238);45.06977090476238;7.674665229262226
258;PARATO;TORINO;VIA AQUILEIA 8;8;10133;011 6614838;011 6614838;toee05100a@istruzione.it;http://pellico.scuole.piemonte.it;SCUOLA PRIMARIA;;;statale;;;Sede di Plesso;"Circolo Didattico - ""Pellico""";;POINT (7.682493340537072 45.04113932140974);45.041139321409744;7.682493340537072
259;ANGIOLO SILVIO NOVARO;TORINO;VIA ARCANGELO CORELLI 4;6;10154;011 2463390;011 267639;ddnovaro@tin.it;;SCUOLA PRIMARIA;;;statale;;;Sede di Plesso;"Circolo Didattico ""Novaro""";;POINT (7.708001093070673 45.09417899964473);45.09417899964473;7.708001093070673
260;MADRE CABRINI;TORINO;VIA ARTISTI 4;7;10124;011 835858;011 835859;cabrini.to@tin.it;http://www.istitutocabrini.it;SCUOLA SEC. I GRADO;;;non statale;paritaria;;Sede centrale;"Istituto ""Madre Cabrini""";;POINT (7.694625703138303 45.07069609985894);45.07069609985894;7.6946257031383025
261;MADRE CABRINI;TORINO;VIA ARTISTI 4;7;10124;011 835858;011 835859;cabrini.to@tin.it;http://www.istitutocabrini.it;SCUOLA PRIMARIA;;;non statale;paritaria;;Sede di Plesso;"Istituto ""Madre Cabrini""";;POINT (7.694625703138303 45.07069609985894);45.07069609985894;7.6946257031383025
262;MADRE CABRINI;TORINO;VIA ARTISTI 4;7;10124;011 835858;011 835859;cabrini.to@tin.it;http://www.istitutocabrini.it;SCUOLA D'INFANZIA;;;non statale;paritaria;convenzionata;Sede di plesso;"Istituto ""Madre Cabrini""";;POINT (7.694625703138303 45.07069609985894);45.07069609985894;7.6946257031383025
263;GUGLIELMO MARCONI;TORINO;VIA ASIGLIANO VERCELLESE 10;7;10153;011 8980945;011 0588737;segreteria@icmarconiantonelli.it;http://www.icmarconiantonelli.it;SCUOLA SEC. I GRADO;;;statale;;;Sede centrale;"Istituto Comprensivo - ""Marconi - Antonelli""";;POINT (7.724761268444801 45.07594513138156);45.07594513138156;7.7247612684448015
264;POLLICINO;TORINO;VIA ASSIETTA 17;1;10128;011 546073;011 546073;ilpollicino@fastwebnet.it;http://www.coppino.it;SCUOLA D'INFANZIA;;;non statale;paritaria;non convenzionata;Sede di plesso;;;POINT (7.673435345392648 45.06284620276366);45.06284620276366;7.673435345392648
265;DI VIA ASSISI N.45;TORINO;VIA ASSISI 45;5;10149;011 250310;011 250310;smmassisi@comune.torino.it;;SCUOLA D'INFANZIA;;;non statale;paritaria;comunale;Sede di plesso;;;POINT (7.667486845274276 45.09545100424274);45.09545100424274;7.667486845274276
266;S. MICHELE;TORINO;VIA AUGUSTO ABEGG 19;8;10126;011 6966217;011 6309237;scuola@scuolasanmichele.org;http://www.scuolasanmichele.org;SCUOLA D'INFANZIA;;;non statale;paritaria;non convenzionata;Sede di plesso;Scuola San Michele;;POINT (7.67199787744704 45.04035506780729);45.04035506780729;7.67199787744704
267;SAN MICHELE;TORINO;VIA AUGUSTO ABEGG 19;8;10126;011 6966217;011 6309237;scuola@scuolasanmichele.org;http://www.scuolasanmichele.org;SCUOLA PRIMARIA;;;non statale;paritaria;;Sede di Plesso;Scuola San Michele;;POINT (7.67199787744704 45.04035506780729);45.04035506780729;7.67199787744704
268;BERTA;TORINO;VIA AUGUSTO BERTA 15;3;10141;011 331954;011 386418;TOEE065008@istruzione.it;;SCUOLA D'INFANZIA;;;statale;;;Sede di plesso;"Circolo Didattico - ""Emilio Salgari""";;POINT (7.653418291493101 45.05887465647787);45.05887465647787;7.653418291493101
269;AUGUSTO BERTA;TORINO;VIA AUGUSTO BERTA 15;3;10141;011 337067;011 386418;TOEE065008@istruzione.it;;SCUOLA PRIMARIA;;;statale;;;Sede di Plesso;"Circolo Didattico - ""Emilio Salgari""";;POINT (7.653418291493101 45.05887465647787);45.05887465647787;7.653418291493101
270;A. MANZONI;TORINO;VIA BALME 46;4;10143;011 755205;011 748477;toee03900q@istruzione.it;;SCUOLA D'INFANZIA;;;statale;;;Sede di plesso;"Circolo Didattico - ""Manzoni""";;POINT (7.649507995250256 45.08126375036192);45.08126375036192;7.649507995250256
271;CADUTI DI CEFALONIA;TORINO;VIA BALTIMORA 110;2;10137;011 396447;011 3272110;tomm00900v@istruzione.it;http://www.cadutidicefalonia.it;SCUOLA SEC. I GRADO;;;statale;;;Sede centrale;"Istituto Secondario I grado - ""Caduti di Cefalonia""";;POINT (7.638015640593443 45.0462730937535);45.0462730937535;7.6380156405934425
272;RENATO SCLARANDI;TORINO;VIA BALTIMORA 171;2;10136;011 307585;011 307585;TOEE06900G@istruzione.it;http://share.dschola.it/ddgobetti;SCUOLA PRIMARIA;;;statale;;;Sede di Plesso;"Circolo Didattico - ""Gobetti""";;POINT (7.631094957529663 45.04849416042976);45.04849416042976;7.631094957529663
273;VIA BALTIMORA 64;TORINO;VIA BALTIMORA 64;2;10137;011 3272007;011 3092489;smmbaltimora@comune.torino.it;;SCUOLA D'INFANZIA;;;non statale;paritaria;comunale;Sede di plesso;;;POINT (7.641861088634453 45.04491185476572);45.04491185476572;7.641861088634453
274;DI VIA BALTIMORA 76;TORINO;VIA BALTIMORA 76;2;10137;011 3248550;011 390778 - 011 392;ddmazzinisegreteria@ddmazzinitorino.it;http://www.ddmazzinitorino.it;SCUOLA D'INFANZIA;;;statale;;;Sede di plesso;"Circolo Didattico ""G. Mazzini""";;POINT (7.640901328168408 45.04524799646775);45.04524799646775;7.640901328168408
275;ERNESTO CHIOVINI;TORINO;VIA BALTIMORA 76;2;10137;011 3248550;011 390778 - 011 392;ddmazzinisegreteria@ddmazzinitorino.it;http://www.ddmazzinitorino.it;SCUOLA PRIMARIA;;;statale;;;Sede di Plesso;"Circolo Didattico ""G. Mazzini""";;POINT (7.640901328168408 45.04524799646775);45.04524799646775;7.640901328168408
276;OLIVETTI;TORINO;VIA BARDASSANO 5;7;10132;011 4438780;011 4438744;toic81800l@istruzione.it;http://www.gozzi-olivetti.org;SCUOLA SEC. I GRADO;;;statale;;;Sede centrale;"Istituto Comprensivo - ""Gozzi Olivetti""";;POINT (7.711611384574169 45.06670063172609);45.06670063172609;7.711611384574169
277;DROVETTI;TORINO;VIA BARDONECCHIA 34;3;10139;011 7496274;011 7495456;drovetti@tin.it;http://www.scuoladrovetti.org;SCUOLA SEC. I GRADO;;;statale;;;Sede centrale;"Scuola Media Statale ""Bernardino Drovetti""";;POINT (7.644866085029012 45.07277132651954);45.072771326519536;7.644866085029012
278;DI VIA BARDONECCHIA 36/A;TORINO;VIA BARDONECCHIA 36;3;10139;011 7493693;;toee01200q@istruzione.it;;SCUOLA D'INFANZIA;;;statale;;;Sede di plesso;"Circolo Didattico - ""Casati""";;POINT (7.644724932270289 45.07276762547975);45.07276762547975;7.644724932270289
279;MUNICIPALE BARLETTA;TORINO;VIA BARLETTA 109 int. 20/A;2;10136;011 4433463;011 4433648;smmbarletta@comune.torino.it;;SCUOLA D'INFANZIA;;;non statale;paritaria;comunale;Sede di plesso;;;POINT (7.636828786743837 45.04916396832117);45.04916396832117;7.636828786743837
280;ERNESTO RICARDI DI NETRO;TORINO;VIA BEATO SEBASTIANO VALFRE' 8;1;10121;011 530213;011 530212;pacchiotti@tin.it;http://www.direzionedidatticapacchiotti.it;SCUOLA PRIMARIA;;;statale;;;Sede di Plesso;"Direzione Didattica - ""G. Pacchiotti""";;POINT (7.671089536705066 45.07060941839018);45.07060941839018;7.6710895367050655
281;VIA BEINASCO 34;TORINO;VIA BEINASCO 34;7;10152;011 850432;011 852430;TOEE05000E@istruzione.it;http://www.scuolaparini.it;SCUOLA D'INFANZIA;;;statale;;;Sede di plesso;"Circolo Didattico - ""Giuseppe Parini""";;POINT (7.677992415866624 45.08782735511947);45.08782735511947;7.677992415866624
282;GIULIO;TORINO;VIA BELFIORE 46;8;10125;011 658702;011 6692624;giulio@istitutogiulio.it;http://www.istitutogiulio.it;SCUOLA SEC. II GRADO;I.P. SETT SERVIZI;I. P. SERVIZI SOCIALI;statale;;;Scuola coordinata;"Istituto d'istruzione Secondaria Superiore - ""Giulio""";;POINT (7.677895824082895 45.05297863376467);45.05297863376467;7.677895824082895
283;GIULIO;TORINO;VIA BELFIORE 46;8;10125;011 658702;011 6692624;giulio@istitutogiulio.it;http://www.istitutogiulio.it;SCUOLA SEC. II GRADO;I.P. SETT SERVIZI;I. P. SERV. COMM. TURIS. PUBBL;statale;;;Succursale;"Istituto d'istruzione Secondaria Superiore - ""Giulio""";;POINT (7.677895824082895 45.05297863376467);45.05297863376467;7.677895824082895
284;PAOLO BOSELLI;TORINO;VIA BERNARDINO LUINI 123;5;10149;011 7394323;011 7395513;didattica@ipcboselli.it;http://www.istitutoboselli.it;SCUOLA SEC. II GRADO;I.P. SETT SERVIZI;I. P. SANITARIO E AUSILIARIO;statale;;;Scuola coordinata;"Istituto ""Paolo Boselli""";;POINT (7.657335358981888 45.09903931818819);45.09903931818819;7.657335358981888
285;Paolo BOSELLI;TORINO;VIA BERNARDINO LUINI 123;5;10149;011 7394323;011 7395513;didattica@ipcboselli.it;http://www.istitutoboselli.it;SCUOLA SEC. II GRADO;I.T. SETT ECONOMICO;I.T. PER IL TURISMO;statale;;;Scuola coordinata;"Istituto ""Paolo Boselli""";;POINT (7.657335358981888 45.09903931818819);45.09903931818819;7.657335358981888
286;Paolo BOSELLI;TORINO;VIA BERNARDINO LUINI 123;5;10149;011 7394323;011 7395513;didattica@ipcboselli.it;http://www.istitutoboselli.it;SCUOLA SEC. II GRADO;I.P. SETT SERVIZI;I. P. SERV. COMM. TURIS. PUBBL;statale;;;Succursale;"Istituto ""Paolo Boselli""";;POINT (7.657335358981888 45.09903931818819);45.09903931818819;7.657335358981888
287;ROSSELLI;TORINO;VIA BETTINO RICASOLI 15;7;10153;011 8179109;011 883959;ic.viaricasoli@tiscali.it;http://ic-viaricasoli-torino.org/;SCUOLA SEC. I GRADO;;;statale;;;Sede staccata;"Istituto Comprensivo - ""Via Ricasoli""";;POINT (7.70630657519228 45.07045594308629);45.07045594308629;7.70630657519228
288;L.A. MURATORI;TORINO;VIA BETTINO RICASOLI 30;7;10153;011 889166;011 883959;ic.viaricasoli@tiscali.it;http://ic-viaricasoli-torino.org/;SCUOLA PRIMARIA;;;statale;;;Sede di Plesso;"Istituto Comprensivo - ""Via Ricasoli""";;POINT (7.705274328604953 45.07192921518754);45.07192921518754;7.705274328604953
289;C. NIGRA;TORINO;VIA BIANZE' 7;4;10143;011 745105;011 740880;smsnigra@tin.it;http://www.nigra-to.it;SCUOLA SEC. I GRADO;;;statale;;;Sede centrale;"Istituto Secondario I grado - ""Costantino Nigra""";;POINT (7.65471888210257 45.07812146867045);45.07812146867045;7.6547188821025705
290;CONVITTO NAZIONALE UMBERTO I;TORINO;VIA BLIGNY 1;1;10122;011 4369436;011 5215296;convittonazionale@cnuto.it;http://www.cnuto.it;SCUOLA SEC. II GRADO;LICEO;LICEO SCIENTIFICO;statale;;;Sede centrale;Convitto Nazionale Umberto I;;POINT (7.675945460891907 45.07457895671991);45.07457895671991;7.675945460891907
291;CONVITTO NAZIONALE UMBERTO I;TORINO;VIA BLIGNY 1;1;10122;011 4369436;011 5215296;convittonazionale@cnuto.it;http://www.cnuto.it;SCUOLA SEC. II GRADO;LICEO;LICEO CLASSICO;statale;;;Scuola coordinata;Convitto Nazionale Umberto I;;POINT (7.675945460891907 45.07457895671991);45.07457895671991;7.675945460891907
292;CONVITTO NAZIONALE UMBERTO I;TORINO;VIA BLIGNY 1;1;10122;011 4369436;011 5215296;scuolaprimaria@cnuto.it;http://www.cnuto.it;SCUOLA PRIMARIA;;;statale;;;Sede di Plesso;Convitto Nazionale Umberto I;;POINT (7.675945460891907 45.07457895671991);45.07457895671991;7.675945460891907
293;A. EINSTEIN;TORINO;PIAZZALE (C.R.I.) CROCE ROSSA ITALIANA 183;6;10154;011 280668;011 2487193;tois01800r@liceoeinsteintorino.it;http://www.liceoeinsteintorino.it;SCUOLA SEC. II GRADO;LICEO;LICEO LINGUISTICO;statale;;;Scuola coordinata;"Istituto d'istruzione Secondaria Superiore - ""Einstein""";;POINT (7.710290005058223 45.08950310368025);45.08950310368025;7.710290005058223
294;A. EINSTEIN;TORINO;PIAZZALE (C.R.I.) CROCE ROSSA ITALIANA 183;6;10154;011 280668;011 2487193;tois01800r@liceoeinsteintorino.it;http://www.liceoeinsteintorino.it/;SCUOLA SEC. II GRADO;LICEO;LICEO SCIENZE UMANE - EX IST. E SC. MAGISTR;statale;;;Sezione staccata;"Istituto d'istruzione Secondaria Superiore - ""Einstein""";;POINT (7.710290005058223 45.08950310368025);45.08950310368025;7.710290005058223
295;GRAZIA DELEDDA;TORINO;VIA BOLOGNA 77;6;10154;011 2484252;011 2484252;zperotti@tin.it;http://www.scuolaviacimarosa.it;SCUOLA PRIMARIA;;;statale;;;Sede di Plesso;"Direzione Didattica - ""Ilaria Alpi""";;POINT (7.697842587099047 45.08362996233326);45.08362996233326;7.697842587099047
296;VIOLETA PARRA;TORINO;VIA BOSTON 33;2;10137;011 356646;011 356646;segreteria@ddtocasalegno.it;http://share.dschola.it/casalegno/default.htm;SCUOLA D'INFANZIA;;;statale;;;Sede di plesso;"Direzione Didattica - ""Carlo Casalegno""";;POINT (7.641489773482865 45.04029884153406);45.04029884153406;7.641489773482865
297;LEOPOLDO OTTINO;TORINO;VIA BRISSOGNE 32;3;10142;011 700227;011 700227;agazzi_ottino@tin.it;;SCUOLA PRIMARIA;;;statale;;;Sede di Plesso;"Circolo Didattico ""Agazzi Ottino""";;POINT (7.618114071565347 45.06319337232042);45.06319337232042;7.618114071565347
298;DI VIA BRISSOGNE;TORINO;VIA BRISSOGNE 39;3;10142;011 701699;011 700987;smmbrissogne@comune.torino.it;http://intracom.comune.torino.it/;SCUOLA D'INFANZIA;;;non statale;paritaria;comunale;Sede di plesso;;;POINT (7.618559631372136 45.06298304923769);45.06298304923769;7.618559631372136
299;COMUNALE;TORINO;VIA BRUINO 14;3;10138;011 4471131;011 4474420;smmbruino@comune.torino.it;;SCUOLA D'INFANZIA;;;non statale;paritaria;comunale;Sede di plesso;;;POINT (7.655048756557346 45.0749917410393);45.0749917410393;7.655048756557346
300;REGINA MARGHERITA;TORINO;VIA CALUSO VALPERGA 12;8;10125;011 6505491;011 6692592;topm050003@istruzione.it;http://www.istitutoreginamargherita.it;SCUOLA SEC. II GRADO;LICEO;LICEO LINGUISTICO;statale;;;Scuola coordinata;"Istituto d'istruzione Secondaria Superiore - ""Regina Margherita""";;POINT (7.677501614685733 45.05339098011565);45.05339098011565;7.677501614685733
301;REGINA MARGHERITA;TORINO;VIA CALUSO VALPERGA 12;8;10125;011 6505491;011 6692592;topm050003@istruzione.it;http://www.istitutoreginamargherita.it;SCUOLA SEC. II GRADO;LICEO;LICEO SCIENZE UMANE - EX IST. E SC. MAGISTR;statale;;;Sede centrale;"Istituto d'istruzione Secondaria Superiore - ""Regina Margherita""";;POINT (7.677501614685733 45.05339098011565);45.05339098011565;7.677501614685733
302;VIBERTI;TORINO;VIA CAMBIANO 10;5;10149;011 252050;011 2166367;smmcambiano@comune.torino.it;;SCUOLA D'INFANZIA;;;non statale;paritaria;comunale;Sede di plesso;;;POINT (7.675466466354623 45.0922435698868);45.0922435698868;7.675466466354623
303;GIACHINO;TORINO;VIA CAMPOBASSO 11;6;10155;011 2463848;011 2463848;segreteria@annafrank.it;http://share.dschola.it/annafrankto/default.aspx;SCUOLA PRIMARIA;;;statale;;;Sede di Plesso;"Circolo Didattico - ""Anna Frank""";;POINT (7.698441911549025 45.10848310221716);45.10848310221716;7.6984419115490255
304;MARIA CONSOLATRICE;TORINO;VIA CAPRERA 46;2;10136;011 3290210;011 322618;economato@mconsolatrice.it;http://www.mconsolatrice.it;SCUOLA SEC. I GRADO;;;non statale;paritaria;;Sede centrale;"Istituto ""Maria Consolatrice""";;POINT (7.646558969262155 45.05046563354356);45.05046563354356;7.646558969262155
305;GESU' BAMBINO;TORINO;VIA CAPRERA 46;2;10136;011 3290210;011 322618;economato@mconsolatrice.it;http://www.mconsolatrice.it;SCUOLA PRIMARIA;;;non statale;paritaria;;Sede di Plesso;"Istituto ""Maria Consolatrice""";;POINT (7.646558969262155 45.05046563354356);45.05046563354356;7.646558969262155
306;EMAN.FILIB.SAVOIA DUCA D'AOSTA;TORINO;VIA CARLO CAPELLI 51;4;10146;011 724696;011 724696;segreteria@ddducadaosta.it;;SCUOLA PRIMARIA;;;statale;;;Sede di Plesso;"Direzione didattica - ""Duca d'Aosta""";;POINT (7.633911775201172 45.07951813526572);45.079518135265715;7.633911775201172
307;DANTE ALIGHIERI;TORINO;VIA CARLO CAPELLI 66;4;10146;011 7710454;011 7493341;sms.dante@virgilio.it;http://www.dantealighieritorino.it;SCUOLA SEC. I GRADO;;;statale;;;Succursale;"Istituto Secondario I grado - ""Dante Alighieri""";;POINT (7.634249230279379 45.08041941083319);45.08041941083319;7.634249230279379
308;GIULIO;TORINO;VIA CARLO IGNAZIO GIULIO 30;1;10122;011 4425270;011 4425390;smmgiulio@comune.torino.it;;SCUOLA D'INFANZIA;;;non statale;paritaria;comunale;Sede di plesso;;;POINT (7.676288701845044 45.07803818043151);45.078038180431506;7.676288701845044
309;U. SABA;TORINO;VIA CARLO LORENZINI 4;5;10147;011 296470;011 252319;segreteria@scuolasaba.it;http://www.scuolasaba.it;SCUOLA SEC. I GRADO;;;statale;;;Sede centrale;"Istituto Comprensivo - ""Umberto Saba""";;POINT (7.677878428876498 45.0997901777752);45.099790177775205;7.677878428876498
310;SCUOLA D'INFANZIA;TORINO;VIA CARLO PISACANE 71;2;10127;011 6060610;;smmpisacane@comune.torino.it;;SCUOLA D'INFANZIA;;;non statale;paritaria;comunale;Sede di plesso;;;POINT (7.649492862447905 45.01449898884197);45.01449898884197;7.6494928624479055
311;BIRAGO;TORINO;VIA CARLO PISACANE 72;2;10127;011 6820519;011 6054975;birago.succursale@ipsiabirago.it;http://www.ipsiabirago.it;SCUOLA SEC. II GRADO;I.P. SETT. INDUSTRIA E ARTIGIANATO;I.P. INDUSTRIA E ARTIG.;statale;;;Succursale;"Istituto professionale di Stato ""Birago""";;POINT (7.649378797755564 45.01466409938647);45.01466409938647;7.649378797755564
312;SCUOLA MUNICIPALE INFANZIA;TORINO;VIA CARLO POMA 14;2;10137;011 3115088;011 4420573;smmpoma@comune.torino.it;;SCUOLA D'INFANZIA;;;non statale;paritaria;comunale;Succursale;;;POINT (7.631019714539075 45.03483388506229);45.03483388506229;7.631019714539075
313;B. CHIARA;TORINO;VIA CARLO PORTA 6;6;10155;011 2463844;011 202330;toic808002@istruzione.it;;SCUOLA SEC. I GRADO;;;statale;;;Succursale;"Istituto Comprensivo - ""Leonardo Da Vinci""";;POINT (7.700737644636221 45.10421097425947);45.104210974259466;7.700737644636221
314;LA RIBAMBELLE;TORINO;VIA CARLO TENIVELLI 1;4;10143;011 4371660;011 4371660;tiziana.motto@libero.it;http://www.nidomaternaribambelle.it;SCUOLA D'INFANZIA;;;non statale;non paritaria;;Sede di plesso;;;POINT (7.661405236800193 45.07907158768307);45.079071587683075;7.661405236800193
315;CARLO BONCOMPAGNI;TORINO;VIA CARLO VIDUA 1;4;10144;011 480330;011 4731731;media.pacinotti@tin.it;http://www.icpacinotti.it;SCUOLA PRIMARIA;;;statale;;;Sede di Plesso;"Istituto Comprensivo - ""Antonio Pacinotti""";;POINT (7.660933463899014 45.08102534137084);45.08102534137084;7.660933463899014
316;GIUSEPPE FANCIULLI;TORINO;VIA CAROLINA INVERNIZIO 21;8;10127;011 618035;011 612018;toic88200x@istruzione.it;http://www.cddogliotti.it;SCUOLA D'INFANZIA;;;statale;;;Succursale;"Circolo Didattico - ""Dogliotti""";;POINT (7.655058329270724 45.02227237696363);45.02227237696363;7.655058329270724
317;ANTONIO VIVALDI;TORINO;LARGO CASTELDELFINO 24;5;10147;011 251965;011 257376;TOIC879004@istruzione.it;http://www.scuola-vivaldi.it;SCUOLA SEC. I GRADO;;;statale;;;Sede centrale;"Istituto Comprensivo - ""Vivaldi""";;POINT (7.672502041321706 45.09990758300422);45.09990758300422;7.672502041321706
318;DON MURIALDO;TORINO;VIA CASTELDELFINO 30;5;10147;011 2167862;011 3187604;TOIC879004@istruzione.it;http://www.scuola-vivaldi.it;SCUOLA PRIMARIA;;;statale;;;Sede di Plesso;"Istituto Comprensivo - ""Vivaldi""";;POINT (7.672452191650894 45.10048933504115);45.10048933504115;7.672452191650894
319;RENATO COTTINI;TORINO;VIA CASTELGOMBERTO 20;2;10136;011 3241320 - 011 3241252;011 3241153;liceoart.cottini@tin.it;http://www.liceocottini.it;SCUOLA SEC. II GRADO;LICEO;LICEO ARTISTICO;statale;;;Sede centrale;"Istituto d'istruzione Secondaria Superiore - ""Cottini""";;POINT (7.632046986029675 45.05152914644797);45.05152914644797;7.632046986029675
320;XXV APRILE;TORINO;VIA CAVAGNOLO 35;6;10156;011 2624966;011 5692425;segreteria@annafrank.it;http://share.dschola.it/annafrankto/default.aspx;SCUOLA PRIMARIA;;;statale;;;Sede di Plesso;"Circolo Didattico - ""Anna Frank""";;POINT (7.707243536652977 45.11602148206384);45.11602148206384;7.707243536652977
321;VIA CAVAGNOLO;TORINO;VIA CAVAGNOLO 35;6;10156;011 2622061;011 2620896;toic808002@istruzione.it;;SCUOLA SEC. I GRADO;;;statale;;;Succursale;"Istituto Comprensivo - ""Leonardo Da Vinci""";;POINT (7.707243536652977 45.11602148206384);45.11602148206384;7.707243536652977
322;DI VIA CAVAGNOLO 35;TORINO;VIA CAVAGNOLO 35;6;10156;011 4428450;011 4428454;smmcavagnolo@comune.torino.it;;SCUOLA D'INFANZIA;;;non statale;paritaria;comunale;Sede di plesso;;;POINT (7.707243536652977 45.11602148206384);45.11602148206384;7.707243536652977
323;RUDOLF STEINER;TORINO;VIA CAVOUR 45/D;1;10123;011 883550;011 883550;asilosteiner.torino@tiscali.it;;SCUOLA D'INFANZIA;;;non statale;paritaria;non convenzionata;Sede di plesso;;;POINT (7.692214172477668 45.0619905265139);45.061990526513895;7.6922141724776685
324;SALVEMINI;TORINO;VIA CELESTE NEGARVILLE 30 int. 6;2;10135;011 3470807;011 19703254;segreteriasalvemini@fastwebnet.it;http://www.gaetanosalvemini.scuole.piemonte.it;SCUOLA PRIMARIA;;;statale;;;Sede di Plesso;"Istituto Comprensivo - Gaetano Salvemini""";;POINT (7.608439950989813 45.01909307617024);45.01909307617024;7.608439950989813
325;MIRAFIORI SUD;TORINO;VIA CELESTE NEGARVILLE 30 int. 8;2;10135;011 3913209;;smmnegarville@comune.torino.it;;SCUOLA D'INFANZIA;;;non statale;paritaria;comunale;Sede di plesso;;;POINT (7.60793516731793 45.019124080886);45.019124080886;7.60793516731793
326;TOMMASO DI SAVOIA;TORINO;VIA CERVINO 6;6;10155;011 286272;011 2490097;smmcervino@comune.torino.it;;SCUOLA D'INFANZIA;;;non statale;paritaria;comunale;Sede di plesso;;;POINT (7.688444201859753 45.09126937545669);45.09126937545669;7.6884442018597525
327;ATHENAEUM SEZ. SERALE;TORINO;VIA CESARE LOMBROSO 13;8;10125;011 6699660;011 6504144;info@athenaeum.it;http://www.athenaeum.it;SCUOLA SEC. II GRADO;I.T. SETT ECONOMICO;I.T. COMMERCIALE;non statale;paritaria;;Sezione differenziata;"Istituto Superiore Paritario ""Athenaeum""";;POINT (7.68261622198873 45.05633554010341);45.05633554010341;7.68261622198873
328;ATHENAEUM;TORINO;VIA CESARE LOMBROSO 13;8;10125;011 6699660;011 6504144;info@athenaeum.it;http://www.athenaeum.it;SCUOLA SEC. II GRADO;I.T. SETT ECONOMICO;I.T. COMMERCIALE;non statale;paritaria;;Sede centrale;"Istituto Superiore Paritario ""Athenaeum""";;POINT (7.68261622198873 45.05633554010341);45.05633554010341;7.68261622198873
329;ATHENAEUM SEZ. SERALE;TORINO;VIA CESARE LOMBROSO 13;8;10125;011 6699660;011 6504144;info@athenaeum.it;http://www.athenaeum.it;SCUOLA SEC. II GRADO;I.T. SETT TECNOLOGICO;I.T. GEOMETRI;non statale;paritaria;;Sede centrale;"Istituto Superiore Paritario ""Athenaeum""";;POINT (7.68261622198873 45.05633554010341);45.05633554010341;7.68261622198873
330;ATHENAEUM;TORINO;VIA CESARE LOMBROSO 13;8;10125;011 6699660;011 6504144;info@athenaeum.it;http://www.athenaeum.it;SCUOLA SEC. II GRADO;I.T. SETT TECNOLOGICO;I.T. GEOMETRI;non statale;paritaria;;Sezione differenziata;"Istituto Superiore Paritario ""Athenaeum""";;POINT (7.68261622198873 45.05633554010341);45.05633554010341;7.68261622198873
331;ROSA AGAZZI;TORINO;VIA CHAMBERY 33;3;10141;011 705793;011 700227;agazzi_ottino@tin.it;;SCUOLA PRIMARIA;;;statale;;;Sede di Plesso;"Circolo Didattico ""Agazzi Ottino""";;POINT (7.620228712096193 45.06913742150111);45.06913742150111;7.620228712096193
332;ALDO PALAZZESCHI;TORINO;VIA CHAMBERY 33;3;10141;011 7070046;011 703644;palazzes@libero.it;http://share.dschola.it/palazzeschi;SCUOLA SEC. I GRADO;;;statale;;;Succursale;"Istituto Secondario I grado - ""Palazzeschi""";;POINT (7.620228712096193 45.06913742150111);45.06913742150111;7.620228712096193
333;ALVAR AALTO;TORINO;VIA CHIOMONTE 4;3;10141;011 3828181;011 3808042;segreteria@itgalvaraalto.it;http://www.itgalvaraalto.it;SCUOLA SEC. II GRADO;I.T. SETT TECNOLOGICO;I.T. GEOMETRI;statale;;;Succursale;Istituto Tecnico Statale per Geometri;;POINT (7.647148349734787 45.06100502368708);45.06100502368708;7.647148349734787
334;MICHELE COPPINO;TORINO;VIA CRISTOFORO COLOMBO 36;1;10129;011 5817369;011 596670;toee016003@istruzione.it;http://www.scuolacoppino.it;SCUOLA PRIMARIA;;;statale;;;Sede di Plesso;"Circolo Didattico - ""Coppino""";;POINT (7.660241889672539 45.05816907896929);45.058169078969286;7.660241889672539
335;MADRE MAZZARELLO;TORINO;VIA CUMIANA 14;3;10141;011 3797811;011 3797855;segreteria.mazzarello@net-media.it;http://www.mazzarello.it;SCUOLA SEC. I GRADO;;;non statale;paritaria;;Sede centrale;Scuola Madre Mazzarello;;POINT (7.643504949288926 45.06616497212544);45.06616497212544;7.643504949288926
336;MADRE MAZZARELLO;TORINO;VIA CUMIANA 14;3;10141;011 3797811;011 3797855;segreteria.mazzarello@net-media.it;http://www.mazzarello.it;SCUOLA PRIMARIA;;;non statale;paritaria;;Sede di Plesso;Scuola Madre Mazzarello;;POINT (7.643504949288926 45.06616497212544);45.06616497212544;7.643504949288926
337;MAZZARELLO;TORINO;VIA CUMIANA 2;3;10141;011 3797810;011 3797846;liceomazzarello@virgilio.it;http://www.liceomazzarello.it;SCUOLA SEC. II GRADO;LICEO;LICEO SCIENZE UMANE - EX IST. E SC. MAGISTR;non statale;paritaria;;Sede centrale;"Liceo Salesiano Paritario - ""M. Mazzarello""";;POINT (7.643674138765207 45.06655766321072);45.06655766321072;7.643674138765207
338;MADRE MAZZARELLO;TORINO;VIA CUMIANA 2;3;10141;011 3797810;011 3797846;liceomazzarello@virgilio.it;http://www.liceomazzarello.it;SCUOLA D'INFANZIA;;;non statale;paritaria;convenzionata;Sede di plesso;"Liceo Salesiano Paritario - ""M. Mazzarello""";;POINT (7.643674138765207 45.06655766321072);45.06655766321072;7.643674138765207
339;MAZZARELLO;TORINO;VIA CUMIANA 2;3;10141;011 3797810;011 3797846;liceomazzarello@virgilio.it;http://www.liceomazzarello.it;SCUOLA SEC. II GRADO;LICEO;LICEO LINGUISTICO;non statale;paritaria;;Sezione differenziata;"Liceo Salesiano Paritario - ""M. Mazzarello""";;POINT (7.643674138765207 45.06655766321072);45.06655766321072;7.643674138765207
340;MAZZARELLO;TORINO;VIA CUMIANA 2;3;10141;011 3797810;011 3797846;liceomazzarello@virgilio.it;http://www.liceomazzarello.it;SCUOLA SEC. II GRADO;LICEO;LICEO SCIENTIFICO;non statale;paritaria;;Sezione differenziata;"Liceo Salesiano Paritario - ""M. Mazzarello""";;POINT (7.643674138765207 45.06655766321072);45.06655766321072;7.643674138765207
341;VANCHIGLIETTA;TORINO;VIA DANIELE MANIN 22;7;10153;011 4432006;011 4432024;smmmanin@comune.torino.it;;SCUOLA D'INFANZIA;;;non statale;paritaria;comunale;Sede di plesso;;;POINT (7.70590897511541 45.07260490042547);45.07260490042547;7.70590897511541
342;LEONARDO DA VINCI;TORINO;VIA DEGLI ABETI 13;6;10156;011 2621298;011 2620896;toic808002@istruzione.it;;SCUOLA SEC. I GRADO;;;statale;;;Sede centrale;"Istituto Comprensivo - ""Leonardo Da Vinci""";;POINT (7.709523849808982 45.13088253221163);45.13088253221163;7.709523849808982
343;P. NERUDA;TORINO;VIA DEGLI ABETI 13;6;10156;011 2621298;011 2620896;toic808002@istruzione.it;;SCUOLA PRIMARIA;;;statale;;;Sede di Plesso;"Istituto Comprensivo - ""Leonardo Da Vinci""";;POINT (7.709523849808982 45.13088253221163);45.13088253221163;7.709523849808982
344;ROSA LUXEMBURG;TORINO;VIA DEGLI ABETI 15;6;10156;011 2622197;011 2620896;toic808002@istruzione.it;;SCUOLA D'INFANZIA;;;statale;;;Sede di plesso;"Istituto Comprensivo - ""Leonardo Da Vinci""";;POINT (7.71035395554649 45.13110189210403);45.131101892104034;7.71035395554649
345;N. TOMMASEO;TORINO;VIA DEI MILLE 15;1;10123;011 8122190;011 8154026;TOIC815005@istruzione.it;http://www.tommaseo.it;SCUOLA PRIMARIA;;;statale;;;Sede di Plesso;"Istituto Comprensivo - ""Niccol¿mmaseo""";;POINT (7.688295611696386 45.06243363853742);45.06243363853742;7.688295611696386
346;SAN MASSIMO;TORINO;VIA DEI MILLE 19;1;10123;011 884707;011 884707;ass.dame_carita@tiscali.it;;SCUOLA D'INFANZIA;;;non statale;paritaria;convenzionata;Sede di plesso;;;POINT (7.688844154094006 45.06210683367689);45.06210683367689;7.688844154094006
347;SAN PIOX;TORINO;VIA DEI PIOPPI 15;6;10156;011 2620274;011 2620274;SCUOLAMATERNASANPIOX@EMAIL.IT;;SCUOLA D'INFANZIA;;;non statale;paritaria;convenzionata;Sede di plesso;;;POINT (7.710103290724948 45.12647215919073);45.126472159190726;7.710103290724948
348;AMBROSINI;TORINO;VIA DEI PIOPPI 45;6;10156;011 2620891;011 2620896;toic808002@istruzione.it;;SCUOLA PRIMARIA;;;statale;;;Sede di Plesso;"Istituto Comprensivo - ""Leonardo Da Vinci""";;POINT (7.712228235798958 45.12670978334306);45.12670978334306;7.712228235798958
349;FEDERICO SCLOPIS;TORINO;VIA DEL CARMINE 27;1;10122;011 530212;011 543072;pacchiotti@tin.it;http://www.direzionedidatticapacchiotti.it;SCUOLA PRIMARIA;;;statale;;;Sede di Plesso;"Direzione Didattica - ""G. Pacchiotti""";;POINT (7.671968613445168 45.07687142439764);45.076871424397645;7.671968613445168
350;PASSONI;TORINO;VIA DELLA CITTADELLA 3;1;10122;011 5611634;011 5619086;istpassoni@tin.it / uff.didattica@ist-darte.mysam.it;http://www.isapassoni.it;SCUOLA SEC. II GRADO;IST. D'ARTE;IST. D'ARTE / LICEO ARTISTICO;statale;;;Succursale;;;POINT (7.674373396071775 45.07450272385184);45.07450272385184;7.6743733960717755
351;SANT'ANNA;TORINO;VIA DELLA CONSOLATA 20;1;10122;011 2342333;011 2342246;direzione.santanna@tiscali.it;;SCUOLA PRIMARIA;;;non statale;paritaria;;Sede di Plesso;;;POINT (7.679379597245494 45.07773857777681);45.077738577776806;7.679379597245494
352;SANT'ANNA;TORINO;VIA DELLA CONSOLATA 20;1;10122;011 2342279;011 2342202;maternasantanna@tiscali.it;;SCUOLA D'INFANZIA;;;non statale;paritaria;convenzionata;Sede di plesso;;;POINT (7.679379597245494 45.07773857777681);45.077738577776806;7.679379597245494
353;PASSONI;TORINO;VIA DELLA ROCCA 7;1;10123;011 8177377;011 8127290;istpassoni@tin.it - uff.didattica@ist-darte.mysam.it;http://www.isapassoni.it;SCUOLA SEC. II GRADO;IST. D'ARTE;IST. D'ARTE / LICEO ARTISTICO;statale;;;Sede centrale;"Istituto d'istruzione Secondaria Superiore - ""Aldo Passoni""";;POINT (7.693426512326502 45.06382901785329);45.06382901785329;7.693426512326502
354;SCUOLA D'INFANZIA;TORINO;VIA DELLE MAGNOLIE 15;5;10151;011 7399425;011 4551236;TOIC810002@istruzione.it;http://www.ic-turoldo.it;SCUOLA D'INFANZIA;;;statale;;;Sede di plesso;"Istituto Comprensivo - ""D. M. Turoldo""";;POINT (7.631876406164922 45.10169527928549);45.101695279285494;7.631876406164922
355;D. M. TUROLDO;TORINO;VIA DELLE MAGNOLIE 9;5;10151;011 7399425;011 4551236;TOIC810002@istruzione.it;http://www.ic-turoldo.it;SCUOLA SEC. I GRADO;;;statale;;;Sede centrale;"Istituto Comprensivo - ""D. M. Turoldo""";;POINT (7.633277522329599 45.10167936844271);45.10167936844271;7.633277522329599
356;G. GIANELLI;TORINO;VIA DELLE PRIMULE 36/B;5;10151;011 7399425;011 4551236;TOIC810002@istruzione.it;http://www.ic-turoldo.it;SCUOLA PRIMARIA;;;statale;;;Sede di Plesso;"Istituto Comprensivo - ""D. M. Turoldo""";;POINT (7.62649968837545 45.10241061448601);45.10241061448601;7.62649968837545
357;VALLETTE B;TORINO;VIA DELLE PRIMULE 36/C;5;10151;011 735379;011 735379;smmprimule@comune.torino.it;;SCUOLA D'INFANZIA;;;non statale;paritaria;comunale;Sede di plesso;;;POINT (7.626493989388633 45.10234775975482);45.10234775975482;7.626493989388633
358;VITTORIA;TORINO;VIA DELLE ROSINE 14;1;10123;011 889870;011 8123486;info@vittoriaweb.it;http://http://www.vittoriaweb.it;SCUOLA SEC. II GRADO;LICEO;LICEO LINGUISTICO;non statale;paritaria;;Sede centrale;;;POINT (7.691093155550996 45.06470717962266);45.06470717962266;7.6910931555509965
359;G. LEOPARDI;TORINO;VIA DELLE VERBENE 6;5;10151;011 7399425;011 4551236;TOIC810002@ISTRUZIONE.IT;http://www.ic-turoldo.it;SCUOLA PRIMARIA;;;statale;;;Sede di Plesso;"Istituto Comprensivo - ""D. M. Turoldo""";;POINT (7.633420387106289 45.10436006277746);45.10436006277746;7.633420387106289
360;NOSTRA SIGNORA DELLA SPERANZA;TORINO;VIA DESANA 18;6;10155;011 2053566;011 2053566;speranzadesana18@libero.it;;SCUOLA D'INFANZIA;;;non statale;paritaria;convenzionata;Sede di plesso;;;POINT (7.690380432365854 45.0966494899803);45.0966494899803;7.690380432365854
361;CENTRO EUROPA B;TORINO;VIA DOMENICO GUIDOBONO 2;2;10137;011 3111710;011 3083147;smmguidobono@comune.torino.it;http://www.comune.torino.it;SCUOLA D'INFANZIA;;;non statale;paritaria;comunale;Sede di plesso;;;POINT (7.61815570946202 45.03817891633658);45.03817891633658;7.61815570946202
362;RENATO COTTINI;TORINO;VIA DON GIOVANNI GRIOLI 43;2;10137;011 3081474;011 3081474;liceoart.cottini@tin.it;http://www.liceocottini.it;SCUOLA SEC. II GRADO;LICEO;LICEO ARTISTICO;statale;;;Succursale;"Istituto d'istruzione Secondaria Superiore - ""Cottini""";;POINT (7.635443152631025 45.03436299161739);45.03436299161739;7.635443152631025
363;DOMENICO BERTI;TORINO;VIA DUCHESSA JOLANDA 27 bis;3;10138;011 4472684;011 4333281;topm120004@istruzione.it;http://share.dschola.it/berti/default.aspx;SCUOLA SEC. II GRADO;LICEO;LICEO LINGUISTICO;statale;;;Scuola coordinata;"Istituto d'istruzione Secondaria Superiore - ""D. Berti""";;POINT (7.658066303922066 45.07534938507388);45.075349385073885;7.658066303922066
364;DOMENICO BERTI;TORINO;VIA DUCHESSA JOLANDA 27 bis;3;10138;011 4472684;011 4333281;topm120004@istruzione.it;http://share.dschola.it/berti/default.aspx;SCUOLA SEC. II GRADO;LICEO;LICEO SCIENZE UMANE - EX IST. E SC. MAGISTR;statale;;;Sede centrale;"Istituto d'istruzione Secondaria Superiore - ""D. Berti""";;POINT (7.658066303922066 45.07534938507388);45.075349385073885;7.658066303922066
365;GIOVANNI PASCOLI;TORINO;VIA DUCHESSA JOLANDA 29;3;10138;011 4472782;011 4470741;drovetti@tin.it;http://www.scuoladrovetti.org;SCUOLA SEC. I GRADO;;;statale;;;Sede staccata;"Scuola Media Statale ""Bernardino Drovetti""";;POINT (7.657305197509841 45.07561849636564);45.075618496365635;7.6573051975098405
366;ENFANTS PARADISE;TORINO;VIA EDOARDO RUBINO 77;2;10137;011 3111637;;enfants.paradise@libero.it;http://http://www.torinobimbi.it/enfantsparadise;SCUOLA D'INFANZIA;;;non statale;paritaria;non convenzionata;Sede di plesso;;;POINT (7.619689892119546 45.03849983495515);45.03849983495515;7.6196898921195455
367;CENTRO EUROPA C;TORINO;VIA EDOARDO RUBINO 82;2;10137;011 3092176;011 3092176;smmrubino@comune.torino.it;http://www.comune.torino.it;SCUOLA D'INFANZIA;;;non statale;paritaria;comunale;Sede di plesso;;;POINT (7.621338714181079 45.03965093951963);45.03965093951963;7.621338714181079
368;ELEONORA D'ARBOREA;TORINO;VIA ELEONORA D'ARBOREA 9 int. 2;2;10137;011 3174700;011 307468;toee02500t@istruzione.it;http://francamazzarello.scuole.piemonte.it;SCUOLA D'INFANZIA;;;statale;;;Sede di plesso;"Circolo Didattico - ""Franca Mazzarello""";;POINT (7.640572111166124 45.03487360353109);45.03487360353109;7.640572111166124
370;CESARE BATTISTI;TORINO;VIA EMANUELE LUSERNA DI RORA' 14;3;10139;011 4336626;011 4336626;toee01200q@istruzione.it;;SCUOLA PRIMARIA;;;statale;;;Sede di Plesso;"Circolo Didattico - ""Casati""";;POINT (7.647759909502502 45.06738851247205);45.06738851247205;7.6477599095025015
371;LUGARO;TORINO;VIA ERNESTO LUGARO 6;8;10126;011 658854;011 6698180;smmlugaro@comune.torino.it;;SCUOLA D'INFANZIA;;;non statale;paritaria;comunale;Sede di plesso;;;POINT (7.671494208701059 45.04838189888017);45.048381898880166;7.671494208701059
372;VALENTINO BOSSO - AUGUSTO MONTI;TORINO;VIA ETTORE PERRONE 7 bis;1;10122;011 5660505;011 5136967;bossomonti@hotmail.com;http://www.valentinobosso.it;SCUOLA SEC. II GRADO;I.P. SETT SERVIZI;I. P. SERVIZI SOCIALI;statale;;;Succursale;"Istituto ""Bosso-Monti"" di Torino";;POINT (7.673108953506818 45.07328231785858);45.073282317858585;7.673108953506818
373;IGNAZIO VIAN;TORINO;VIA ETTORE STAMPINI 25;5;10148;011 2266565;011 2261406;TOMM073006@istruzione.it;http://www.smsvian.it;SCUOLA SEC. I GRADO;;;statale;;;Sede centrale;"Istituto Secondario I grado - ""Ignazio Vian""";;POINT (7.663194464595626 45.10900367940217);45.10900367940217;7.663194464595626
374;GOBETTI MARCHESINI;TORINO;VIA FIGLIE DEI MILITARI 25;8;10131;011 8196990;011 8197377;segreteria@gobettimarchesini.it;http://www.gobettimarchesini.it;SCUOLA SEC. II GRADO;I.P. SETT. INDUSTRIA E ARTIGIANATO;I.P. INDUSTRIA E ARTIG.;statale;;;Sede centrale;"Istituto d'istruzione Secondaria Superiore - ""Ada Gobetti marchesini""";;POINT (7.709688172848699 45.06426661060639);45.06426661060639;7.709688172848699
375;ARDUINO;TORINO;VIA FIGLIE DEI MILITARI 25;8;10131;011 8197133;011 8197300;arduino@itcarduino.it;http://www.itcarduino.it;SCUOLA SEC. II GRADO;I.T. SETT ECONOMICO;I.T. PERITI AZIENDALI;statale;;;Scuola coordinata;"Istituto d'istruzione Secondaria Superiore - ""Vera e Libera Arduino""";;POINT (7.709688172848699 45.06426661060639);45.06426661060639;7.709688172848699
376;ARDUINO;TORINO;VIA FIGLIE DEI MILITARI 25;8;10131;011 8197133;011 8197300;arduino@itcarduino.it;http://www.itcarduino.it;SCUOLA SEC. II GRADO;I.T. SETT ECONOMICO;I.T. COMMERCIALE;statale;;;Sede centrale;"Istituto d'istruzione Secondaria Superiore - ""Vera e Libera Arduino""";;POINT (7.709688172848699 45.06426661060639);45.06426661060639;7.709688172848699
377;ALTIERO SPINELLI;TORINO;VIA FIGLIE DEI MILITARI 25;8;10131;011 8399552;011 8399561;segretscuolaeuropea@tiscali.it;http://www.istitutoaltierospinelli.eu;SCUOLA SEC. II GRADO;LICEO;LICEO LINGUISTICO;statale;;;Scuola coordinata;"Istituto Onnicomprensivo - Altiero Spinelli""";;POINT (7.709688172848699 45.06426661060639);45.06426661060639;7.709688172848699
378;ALTIERO SPINELLI;TORINO;VIA FIGLIE DEI MILITARI 25;8;10131;011 8399552;011 8399561;segretscuolaeuropea@tiscali.it;http://www.istitutoaltierospinelli.eu;SCUOLA SEC. II GRADO;LICEO;LICEO SCIENTIFICO;statale;;;Sede centrale;"Istituto Onnicomprensivo - Altiero Spinelli""";;POINT (7.709688172848699 45.06426661060639);45.06426661060639;7.709688172848699
379;ALTIERO SPINELLI;TORINO;VIA FIGLIE DEI MILITARI 25;8;10131;011 8399552;011 9388561;segretscuolaeuropea@tiscali.it;http://www.istitutoaltierospinelli.eu;SCUOLA SEC. I GRADO;;;statale;;;Sede centrale;"Istituto Onnicomprensivo - Altiero Spinelli""";;POINT (7.709688172848699 45.06426661060639);45.06426661060639;7.709688172848699
380;CASALEGNO;TORINO;VIA FILIPPO ACCIARINI 20;2;10137;011 321724;011 3290470;segreteria@ddtocasalegno.it;http://share.dschola.it/casalegno/default.htm;SCUOLA PRIMARIA;;;statale;;;Sede di Plesso;"Direzione Didattica - ""Carlo Casalegno""";;POINT (7.642023729091799 45.04089856812323);45.04089856812323;7.6420237290917985
381;A. VOLTA;TORINO;VIA FILIPPO JUVARRA 14;1;10122;011 544126-7;011 5617143;volta.torino@tiscali.it;http://volta.altervista.org/;SCUOLA SEC. II GRADO;LICEO;LICEO SCIENTIFICO;statale;;;Sede centrale;"Istituto d'istruzione Secondaria Superiore - ""A. Volta""";;POINT (7.672012661647692 45.07412996514354);45.07412996514354;7.672012661647692
382;VITTORINO DA FELTRE;TORINO;VIA FINALMARINA 5;8;10126;011 6967809;011 6635218;toee07200b@istruzione.it;http://vittorinodafeltre.scuole.piemonte.it;SCUOLA PRIMARIA;;;statale;;;Sede di Plesso;"Circolo Didattico - ""Vittorino da Feltre""";;POINT (7.668547558734614 45.03274533136177);45.032745331361774;7.668547558734614
383;G. C. POLA;TORINO;VIA FOGLIZZO 15;5;10149;011 733694;011 7393668;TOIC873005@istruzione.it;http://www.padregemelli.it;SCUOLA SEC. I GRADO;;;statale;;;Sede staccata;"Istituto Comprensivo - ""Padre Gemelli""";;POINT (7.649077695657114 45.09631365355657);45.09631365355657;7.649077695657114
384;NOSTRA SIGNORA DELLA SALUTE;TORINO;VIA FONTANELLA 9;5;10147;011 290795;011 2163766;scuolainfanzia@fdcsalute.it;;SCUOLA D'INFANZIA;;;non statale;paritaria;convenzionata;Sede di plesso;;;POINT (7.679640773733309 45.09536487884736);45.095364878847356;7.6796407737333094
385;MUNICIPALE;TORINO;VIA FORNO CANAVESE 5;2;10136;011 4420571;011 4420573;smmfornocanavese@comune.torino.it;;SCUOLA D'INFANZIA;;;non statale;paritaria;comunale;Sede di plesso;;;POINT (7.630798807495519 45.04762582624674);45.047625826246744;7.630798807495519
386;EDUARDO DE FILIPPO;TORINO;VIA FOSSANO 16;4;10144;011 489142;011 4731731;media.pacinotti@tin.it;http://www.icpacinotti.it;SCUOLA PRIMARIA;;;statale;;;Sede di Plesso;"Istituto Comprensivo - ""Antonio Pacinotti""";;POINT (7.660896627162741 45.08559707955289);45.08559707955289;7.660896627162741
387;LA FRECCIA AZZURRA;TORINO;VIA FOSSANO 8;4;10144;011 0588315;011 4731731;media.pacinotti@in.it;http://www.icpacinotti.it;SCUOLA D'INFANZIA;;;statale;;;Sede di plesso;"Istituto Comprensivo - ""Antonio Pacinotti""";;POINT (7.661911483227334 45.08536179489995);45.08536179489995;7.661911483227334
388;L. B. ALBERTI;TORINO;VIA FRANCESCO MILLIO 42;3;10141;011 19710354;011 3358146;smsalberti@tin.it;http://share.dschola.it/alberti;SCUOLA SEC. I GRADO;;;statale;;;Succursale;"Istituto Secondario I grado - ""Leon Battista Alberti""";;POINT (7.648795578832872 45.05902502014527);45.05902502014527;7.648795578832872
389;ADELAIDE CAIROLI;TORINO;VIA FRANCESCO RISMONDO 68;2;10127;011 6055703;011 6066586;TOIC866002@istruzione.it;http://www.scuolacairoli.it;SCUOLA PRIMARIA;;;statale;;;Sede di Plesso;"Istituto Comprensivo - ""A. Cairoli""";;POINT (7.649522330525079 45.01355068088588);45.013550680885885;7.649522330525079
390;DUCCIO GALIMBERTI;TORINO;VIA GAETANO MOSCA 11;5;10147;011 290514;011 290914;segreteria@scuolasaba.it;http://www.scuolasaba.it;SCUOLA PRIMARIA;;;statale;;;Sede di Plesso;"Istituto Comprensivo - ""Umberto Saba""";;POINT (7.677496627900601 45.1022192574615);45.1022192574615;7.677496627900601
391;DI VIA GARESSIO 24/5;TORINO;VIA GARESSIO 24 int. 5;8;10126;011 4099923;011 6635218;toee07200b@istruzione.it;http://vittorinodafeltre.scuole.piemonte.it;SCUOLA D'INFANZIA;;;statale;;;Sede di plesso;"Circolo Didattico - ""Vittorino da Feltre""";;POINT (7.670156447206509 45.03071457660351);45.03071457660351;7.670156447206509
392;PRINCIPESSA ISABELLA;TORINO;VIA GASPARE GORRESIO 13;5;10149;011 731767;;smmgorresio@comune.torino.it;;SCUOLA D'INFANZIA;;;non statale;paritaria;comunale;Sede di plesso;;;POINT (7.657247950585088 45.09982328404521);45.099823284045215;7.657247950585088
393;GASPARE GOZZI;TORINO;VIA GASSINO 13;7;10132;011 8191601;011 8191601;toic81800l@istruzione.it;http://www.gozzi-olivetti.org;SCUOLA PRIMARIA;;;statale;;;Sede di Plesso;"Istituto Comprensivo - ""Gozzi Olivetti""";;POINT (7.716685886643419 45.0668172275982);45.0668172275982;7.716685886643419
394;LA CITTA' DEI BAMBINI;TORINO;VIA GATTINARA 7;7;10153;011 8174581;011 8394623;citybimbi@hotmail.com;;SCUOLA D'INFANZIA;;;non statale;paritaria;non convenzionata;Sede di plesso;;;POINT (7.707999327215672 45.07412848519265);45.074128485192645;7.707999327215672
395;SS. ANNUNZIATA;TORINO;VIA GAUDENZIO FERRARI 16;1;10124;011 887933;011 8396958;smssannunziata@tiscali.it;;SCUOLA D'INFANZIA;;;non statale;paritaria;convenzionata;Sede di plesso;;;POINT (7.694330899021342 45.06890468594599);45.06890468594599;7.694330899021342
396;P. G. FRASSATI;TORINO;VIA GEROLAMO TIRABOSCHI 33;5;10149;011 2168786;011 2217892;tomm256006@istruzione.it;;SCUOLA SEC. I GRADO;;;statale;;;Sede centrale;"Istituto Secondario I grado - ""P. G. Frassati""";;POINT (7.659381434835254 45.09744755819954);45.09744755819954;7.659381434835254
397;CIT TURIN;TORINO;VIA GIACINTO COLLEGNO 65;3;10138;011 4476577;011 4337583;smmcollegno@comune.torino.it;;SCUOLA D'INFANZIA;;;non statale;paritaria;comunale;Sede di plesso;;;POINT (7.658844335887604 45.07282238745439);45.07282238745439;7.658844335887604
398;SCUOLA D'INFANZIA;TORINO;VIA GIACINTO COLLEGNO 73;3;10138;011 4476506;011 4476164;elemalfieri@tin.it;http://www.ddvittorioalfieri.it/;SCUOLA D'INFANZIA;;;statale;;;Sede di plesso;"Direzione Didattica ""Vittorio Alfieri""";;POINT (7.658508931131898 45.07234256559127);45.07234256559127;7.658508931131898
399;KENNEDY;TORINO;VIA GIACINTO PACCHIOTTI 102;4;10146;011 725637;011 796959;TOEE03400L@ISTRUZIONE.IT;http://digilander.libero.it/scuola.kennedy;SCUOLA PRIMARIA;;;statale;;;Succursale;"Circolo Didattico - ""Kennedy""";;POINT (7.624597530640411 45.0782595495058);45.0782595495058;7.624597530640411
400;DANTE ALIGHIERI;TORINO;VIA GIACINTO PACCHIOTTI 80;4;10146;011 710091;011 721332;sms.dante@virgilio.it;http://www.dantealighieritorino.it;SCUOLA SEC. I GRADO;;;statale;;;Sede centrale;"Istituto Secondario I grado - ""Dante Alighieri""";;POINT (7.627829409601885 45.07818090790526);45.07818090790526;7.627829409601885
401;C. ALVARO - A. MODIGLIANI;TORINO;VIA GIACOMO BALLA 27;2;10136;011 3111745;011 3112732;tomm28900d@istruzione.it;http://alvaromodigliani.it;SCUOLA SEC. I GRADO;;;statale;;;Sede centrale;"Istituto Secondario I grado - ""Alvaro - Modigliani""";;POINT (7.624739309771293 45.04742839547526);45.04742839547526;7.624739309771293
402;ISTITUTO ADORAZIONE CADORNA;TORINO;VIALE GIACOMO CURRENO 21;8;10133;011 6602979;011 6602802;segreteria@adorazione.it;http://www.adorazione.it;SCUOLA PRIMARIA;;;non statale;paritaria;;Sede di Plesso;Istituto Adorazione Cadorna;;POINT (7.694788361601113 45.05418137213616);45.05418137213616;7.6947883616011135
403;ISTITUTO ADORAZIONE CADORNA;TORINO;VIALE GIACOMO CURRENO 21;8;10133;011 6602979;011 6602802;segreteria@adorazione.it;http://www.adorazione.it;SCUOLA D'INFANZIA;;;non statale;paritaria;convenzionata;Sede di plesso;Istituto Adorazione Cadorna;;POINT (7.694788361601113 45.05418137213616);45.05418137213616;7.6947883616011135
404;SPERIMENTALE;TORINO;VIA GIACOMO MEDICI 12;4;10143;011 4433424;011 4433423;smmmedici@comune.torino.it;;SCUOLA D'INFANZIA;;;non statale;paritaria;comunale;Sede di plesso;;;POINT (7.654499725297568 45.07679773349829);45.07679773349829;7.654499725297568
405;CASA DEI BIMBI;TORINO;VIA GIACOMO MEDICI 61;4;10143;011 7493267;011 7493267;casadeibimbisanna@libero.it;;SCUOLA D'INFANZIA;;;non statale;paritaria;convenzionata;Sede di plesso;;;POINT (7.648021023021053 45.07894899588597);45.078948995885966;7.648021023021053
406;UGO FOSCOLO;TORINO;VIA GIAN DOMENICO CASSINI 94;1;10129;011 3185201;011 3190630;segreteriascolastica@scuolafoscolo.it;http://www.scuolafoscolo.it;SCUOLA SEC. I GRADO;;;statale;;;Succursale;"Istituto Secondario I grado - ""Ugo Foscolo""";;POINT (7.659456196424927 45.05165555376227);45.05165555376227;7.6594561964249275
407;FALLETTI BAROLO;TORINO;VIA GIAN DOMENICO CASSINI 98;1;10129;011 3186576;011 3186576;toee016003@istruzione.it;http://www.scuolacoppino.it;SCUOLA PRIMARIA;;;statale;;;Sede di Plesso;"Circolo Didattico - ""Coppino""";;POINT (7.659204945202038 45.0513035180505);45.051303518050496;7.659204945202038
408;VIA BELLEZIA 27;TORINO;VIA GIAN FRANCESCO BELLEZIA 27;1;10122;011 5214628;011 5214628;pacchiotti@tin.it;http://www.direzionedidatticapacchiotti.it;SCUOLA D'INFANZIA;;;statale;;;Sede di plesso;"Direzione Didattica - ""G. Pacchiotti""";;POINT (7.681497283124945 45.0753114328887);45.075311432888704;7.681497283124945
409;SCUOLA PRIMARIA;TORINO;VIA GIANFRANCESCO FIOCHETTO 29;7;10152;011 5215585;011 2472125;segreteria@elementarelessona.it;;SCUOLA PRIMARIA;;;statale;;;Sede di Plesso;"Istituto Comprensivo - ""Lessona""";;POINT (7.688940713578445 45.07592010145418);45.07592010145418;7.688940713578445
410;GIORDANO BRUNO;TORINO;VIA GINO MARINUZZI 1;6;10156;011 2624884;011 2621682;giordanobruno@gbruno.com;http://www.gbruno.it;SCUOLA SEC. II GRADO;LICEO;LICEO LINGUISTICO;statale;;;Scuola coordinata;"Istituto d'istruzione Secondaria Superiore - ""Giordano Bruno""";;POINT (7.708065327483307 45.11862557085071);45.11862557085071;7.708065327483307
